$IIXDR,C,7.7,C,ENV_OUTSIDE_T*3C
$IIXDR,P,99670,P,ENV_ATMOS_P*36
$IIZDA,134155.6,29,03,2020,,*48
$IIHDG,102.9,000.0,E,014.4,W*50
$IIVHW,088.5,T,102.9,M,,N,,K*5A
$IIROT,-1,A*14
$PMAROUT,ATT,-1.9,-22.2,,,,,,*17
$IIGLL,4202.1274,N,07141.7652,W,,V,N*5B
$IIVTG,358.3,T,372.7,M,0.00,N,0.00,K,N*37
$IIGGA,134155.6,4202.1274,N,07141.7652,W,1,10,0.9,226.6,M,-32,M,,*63
$IIGLL,4202.1274,N,07141.7652,W,134155.6,A,A*5C
$IIZDA,134155.6,29,03,2020,,*48
$IIDTM,W84,,0,N,0,E,0,W84*66
$IIGSA,A,1,03,04,14,16,22,25,26,29,31,32,,,1.74,0.9,1.5,*3A
$GPGSV,3,1,10,03,37,288,39,04,16,309,23,14,60,122,41,16,31,204,29*72
$GPGSV,3,2,10,22,38,257,36,25,15,044,24,26,63,196,40,29,24,076,44*75
$GPGSV,3,3,10,31,70,026,41,32,33,130,42*79
$IIGSA,A,1,03,04,14,16,22,25,26,29,31,32,,,1.74,0.9,1.5,*3A
$IIGRS,,,,,,,,,,,,,,*46
$IIMWD,146.80,T,,M,5.09,N,2.62,M*5B
$IIXDR,C,7.7,C,ENV_OUTSIDE_T,P,99600,P,ENV_ATMOS_P*43
$IIGLL,4202.1274,N,07141.7652,W,,V,N*5B
$IIVTG,313.7,T,328.1,M,0.00,N,0.00,K,N*35
$IIHDG,102.9,000.0,E,014.4,W*50
$IIVHW,088.5,T,102.9,M,,N,,K*5A
$IIROT,-3,A*16
$IIHDG,102.9,000.0,E,014.4,W*50
$IIVHW,088.5,T,102.9,M,,N,,K*5A
$IIMWV,48.29,R,2.62,M,A*0F
$IIROT,-2,A*17
$IIGLL,4202.1273,N,07141.7652,W,,V,N*5C
$IIVTG,293.9,T,308.3,M,0.00,N,0.00,K,N*32
$IIHDG,102.9,000.0,E,014.4,W*50
$IIVHW,088.5,T,102.9,M,,N,,K*5A
$IIROT,-5,A*10
$IIHDG,102.9,000.0,E,014.4,W*50
$IIVHW,088.5,T,102.9,M,,N,,K*5A
$IIMWD,133.89,T,,M,5.19,N,2.68,M*5B
$IIZDA,134156.6,29,03,2020,,*4B
$IIZDA,134156.6,29,03,2020,,*4B
$PMAROUT,ATT,-2.0,-22.2,,,,,,*1D
$IIROT,-2,A*17
$IIGLL,4202.1273,N,07141.7652,W,,V,N*5C
$IIVTG,272.1,T,286.5,M,0.00,N,0.00,K,N*34
$IIGSA,A,1,,,,,,,,,,,,,1.74,0.9,1.5,*34
$IIXDR,C,7.7,C,ENV_OUTSIDE_T,P,99600,P,ENV_ATMOS_P*43
$IIXDR,C,7.7,C,ENV_OUTSIDE_T*3C
$IIXDR,P,99670,P,ENV_ATMOS_P*36
$IIHDG,102.9,000.0,E,014.4,W*50
$IIVHW,088.5,T,102.9,M,,N,,K*5A
$IIGGA,134156.6,4202.1273,N,07141.7652,W,1,10,0.9,226.7,M,-32,M,,*66
$IIGLL,4202.1273,N,07141.7652,W,134156.6,A,A*58
$IIROT,-3,A*16
$IIHDG,102.9,000.0,E,014.4,W*50
$IIVHW,088.5,T,102.9,M,,N,,K*5A
$GPGSV,3,1,10,03,37,288,39,04,16,309,24,14,60,122,42,16,31,204,27*78
$GPGSV,3,2,10,22,38,257,36,25,15,044,24,26,63,196,39,29,24,076,44*7B
$GPGSV,3,3,10,31,70,026,41,32,33,130,42*79
$IIGSA,A,1,03,04,14,16,22,25,26,29,31,32,,,1.74,0.9,1.5,*3A
$IIGRS,,,,,,,,,,,,,,*46
$IIROT,-2,A*17
$IIGLL,4202.1273,N,07141.7652,W,,V,N*5C
$IIVTG,351.6,T,366.0,M,0.00,N,0.00,K,N*39
$IIHDG,102.9,000.0,E,014.4,W*50
$IIVHW,088.5,T,102.9,M,,N,,K*5A
$IIMWV,44.60,R,2.72,M,A*0F
$IIROT,-3,A*16
$IIHDG,102.9,000.0,E,014.4,W*50
$IIVHW,088.5,T,102.9,M,,N,,K*5A
$IIROT,-2,A*17
$IIGLL,4202.1273,N,07141.7652,W,,V,N*5C
$IIVTG,032.3,T,046.7,M,0.00,N,0.00,K,N*3C
$IIHDG,102.9,000.0,E,014.4,W*50
$IIVHW,088.5,T,102.9,M,,N,,K*5A
$IIMWD,128.19,T,,M,4.90,N,2.52,M*51
$IIROT,-6,A*13
$IIXDR,C,7.7,C,ENV_OUTSIDE_T,P,99600,P,ENV_ATMOS_P*43
$IIHDG,102.9,000.0,E,014.4,W*50
$IIVHW,088.5,T,102.9,M,,N,,K*5A
$IIROT,-7,A*12
$IIGLL,4202.1273,N,07141.7651,W,,V,N*5F
$IIVTG,324.5,T,338.9,M,0.00,N,0.00,K,N*3A
$IIHDG,102.9,000.0,E,014.4,W*50
$IIVHW,088.5,T,102.9,M,,N,,K*5A
$IIROT,-1,A*14
$IIHDG,102.9,000.0,E,014.4,W*50
$IIVHW,088.5,T,102.9,M,,N,,K*5A
$IIMWV,40.59,R,2.37,M,A*00
$IIROT,-2,A*17
$IIGLL,4202.1273,N,07141.7651,W,,V,N*5F
$IIVTG,282.4,T,296.8,M,0.00,N,0.00,K,N*32
$IIHDG,102.9,000.0,E,014.4,W*50
$IIVHW,088.5,T,102.9,M,,N,,K*5A
$IIROT,-1,A*14
$IIHDG,102.9,000.0,E,014.4,W*50
$IIVHW,088.5,T,102.9,M,,N,,K*5A
$IIMWD,138.50,T,,M,3.98,N,2.05,M*50
$IIZDA,134157.6,29,03,2020,,*4A
$IIZDA,134157.6,29,03,2020,,*4A
$PMAROUT,ATT,-2.0,-22.2,,,,,,*1D
$IIROT,-3,A*16
$IIGLL,4202.1273,N,07141.7651,W,,V,N*5F
$IIVTG,275.6,T,290.0,M,0.00,N,0.00,K,N*36
$IIGSA,A,1,,,,,,,,,,,,,1.74,0.9,1.5,*34
$IIXDR,C,7.7,C,ENV_OUTSIDE_T,P,99600,P,ENV_ATMOS_P*43
$IIHDG,102.9,000.0,E,014.4,W*50
$IIVHW,088.5,T,102.9,M,,N,,K*5A
$IIGGA,134157.6,4202.1273,N,07141.7651,W,1,10,0.9,226.7,M,-32,M,,*64
$IIGLL,4202.1273,N,07141.7651,W,134157.6,A,A*5A
$IIROT,-3,A*16
$IIHDG,102.9,000.0,E,014.4,W*50
$IIVHW,088.5,T,102.9,M,,N,,K*5A
$GPGSV,3,1,10,03,37,288,38,04,16,309,27,14,60,122,42,16,31,204,29*74
$GPGSV,3,2,10,22,38,257,36,25,15,044,27,26,63,196,39,29,24,076,44*78
$GPGSV,3,3,10,31,70,026,41,32,33,130,42*79
$IIGSA,A,1,03,04,14,16,22,25,26,29,31,32,,,1.74,0.9,1.5,*3A
$IIGRS,,,,,,,,,,,,,,*46
$IIROT,4,A*3C
$IIGLL,4202.1273,N,07141.7651,W,,V,N*5F
$IIVTG,023.6,T,038.0,M,0.00,N,0.00,K,N*37
$IIHDG,102.9,000.0,E,014.4,W*50
$IIVHW,088.5,T,102.9,M,,N,,K*5A
$IIMWV,62.30,R,1.54,M,A*09
$IIROT,2,A*3A
$IIHDG,102.9,000.0,E,014.4,W*50
$IIVHW,088.5,T,102.9,M,,N,,K*5A
$IIROT,0,A*38
$IIGLL,4202.1273,N,07141.7651,W,,V,N*5F
$IIVTG,029.0,T,043.4,M,0.00,N,0.00,K,N*33
$IIHDG,102.9,000.0,E,014.4,W*50
$IIVHW,088.5,T,102.9,M,,N,,K*5A
$IIMWD,157.79,T,,M,2.99,N,1.54,M*55
$IIROT,-2,A*17
$IIXDR,C,7.7,C,ENV_OUTSIDE_T,P,99600,P,ENV_ATMOS_P*43
$IIHDG,102.9,000.0,E,014.4,W*50
$IIVHW,088.5,T,102.9,M,,N,,K*5A
$IIROT,0,A*38
$IIGLL,4202.1273,N,07141.7651,W,,V,N*5F
$IIVTG,291.4,T,305.8,M,0.00,N,0.00,K,N*3B
$IIHDG,102.9,000.0,E,014.4,W*50
$IIVHW,088.5,T,102.9,M,,N,,K*5A
$IIROT,-2,A*17
$IIHDG,102.9,000.0,E,014.4,W*50
$IIVHW,088.5,T,102.9,M,,N,,K*5A
$IIMWV,63.90,R,1.74,M,A*00
$IIROT,-2,A*17
$IIGLL,4202.1273,N,07141.7651,W,,V,N*5F
$IIVTG,277.0,T,291.4,M,0.00,N,0.00,K,N*37
$IIHDG,102.9,000.0,E,014.4,W*50
$IIVHW,088.5,T,102.9,M,,N,,K*5A
$IIROT,-3,A*16
$IIHDG,102.9,000.0,E,014.4,W*50
$IIVHW,088.5,T,102.9,M,,N,,K*5A
$IIMWD,150.80,T,,M,3.69,N,1.91,M*53
$IIZDA,134158.6,29,03,2020,,*45
$IIZDA,134158.6,29,03,2020,,*45
$PMAROUT,ATT,-2.0,-22.2,,,,,,*1D
$IIROT,-3,A*16
$IIGLL,4202.1273,N,07141.7651,W,,V,N*5F
$IIVTG,280.0,T,294.4,M,0.00,N,0.00,K,N*3A
$IIGSA,A,1,,,,,,,,,,,,,1.74,0.9,1.5,*34
$IIXDR,C,7.7,C,ENV_OUTSIDE_T,P,99600,P,ENV_ATMOS_P*43
$IIXDR,C,7.7,C,ENV_OUTSIDE_T*3C
$IIXDR,P,99660,P,ENV_ATMOS_P*37
$IIHDG,102.9,000.0,E,014.4,W*50
$IIVHW,088.5,T,102.9,M,,N,,K*5A
$IIGGA,134158.6,4202.1273,N,07141.7651,W,1,10,0.9,226.8,M,-32,M,,*64
$IIGLL,4202.1273,N,07141.7651,W,134158.6,A,A*55
$IIROT,-2,A*17
$IIHDG,102.9,000.0,E,014.4,W*50
$IIVHW,088.5,T,102.9,M,,N,,K*5A
$GPGSV,3,1,10,03,37,288,38,04,16,309,28,14,60,122,41,16,31,204,29*78
$GPGSV,3,2,10,22,38,257,35,25,15,044,25,26,63,196,40,29,24,076,44*77
$GPGSV,3,3,10,31,70,026,41,32,33,130,42*79
$IIGSA,A,1,03,04,14,16,22,25,26,29,31,32,,,1.74,0.9,1.5,*3A
$IIGRS,,,,,,,,,,,,,,*46
$IIROT,-6,A*13
$IIGLL,4202.1273,N,07141.7651,W,,V,N*5F
$IIVTG,038.8,T,053.2,M,0.00,N,0.00,K,N*3C
$IIHDG,102.9,000.0,E,014.4,W*50
$IIVHW,088.5,T,102.9,M,,N,,K*5A
$IIMWV,68.39,R,2.26,M,A*0C
$IIROT,-3,A*16
$IIHDG,102.9,000.0,E,014.4,W*50
$IIVHW,088.5,T,102.9,M,,N,,K*5A
$IIROT,-2,A*17
$IIGLL,4202.1273,N,07141.7651,W,,V,N*5F
$IIVTG,038.3,T,052.7,M,0.00,N,0.00,K,N*33
$IIHDG,102.9,000.0,E,014.4,W*50
$IIVHW,088.5,T,102.9,M,,N,,K*5A
$IIMWD,155.39,T,,M,5.00,N,2.58,M*5B
$IIROT,-2,A*17
$IIXDR,C,7.7,C,ENV_OUTSIDE_T,P,99600,P,ENV_ATMOS_P*43
$IIHDG,102.9,000.0,E,014.4,W*50
$IIVHW,088.5,T,102.9,M,,N,,K*5A
$IIROT,0,A*38
$IIGLL,4202.1273,N,07141.7651,W,,V,N*5F
$IIVTG,255.7,T,270.1,M,0.00,N,0.00,K,N*3A
$IIHDG,102.9,000.0,E,014.4,W*50
$IIVHW,088.5,T,102.9,M,,N,,K*5A
$IIROT,-1,A*14
$IIHDG,102.9,000.0,E,014.4,W*50
$IIVHW,088.5,T,102.9,M,,N,,K*5A
$IIMWV,62.30,R,2.89,M,A*0A
$IIROT,0,A*38
$IIGLL,4202.1273,N,07141.7651,W,,V,N*5F
$IIVTG,249.5,T,263.9,M,0.00,N,0.00,K,N*3F
$IIHDG,102.9,000.0,E,014.4,W*50
$IIVHW,088.5,T,102.9,M,,N,,K*5A
$IIROT,0,A*38
$IIHDG,102.9,000.0,E,014.4,W*50
$IIVHW,088.5,T,102.9,M,,N,,K*5A
$IIMWD,147.89,T,,M,5.89,N,3.03,M*5D
$IIZDA,134159.6,29,03,2020,,*44
$IIZDA,134159.6,29,03,2020,,*44
$PMAROUT,ATT,-2.0,-22.2,,,,,,*1D
$IIROT,0,A*38
$IIGLL,4202.1273,N,07141.7651,W,,V,N*5F
$IIVTG,241.2,T,255.6,M,0.00,N,0.00,K,N*3A
$IIGSA,A,1,,,,,,,,,,,,,1.74,0.9,1.5,*34
$IIXDR,C,7.7,C,ENV_OUTSIDE_T,P,99600,P,ENV_ATMOS_P*43
$IIHDG,102.9,000.0,E,014.4,W*50
$IIVHW,088.5,T,102.9,M,,N,,K*5A
$IIGGA,134159.6,4202.1273,N,07141.7651,W,1,10,0.9,226.8,M,-32,M,,*65
$IIGLL,4202.1273,N,07141.7651,W,134159.6,A,A*54
$IIROT,-1,A*14
$IIHDG,102.9,000.0,E,014.4,W*50
$IIVHW,088.5,T,102.9,M,,N,,K*5A
$GPGSV,3,1,10,03,37,288,39,04,16,309,27,14,60,122,42,16,31,204,29*75
$GPGSV,3,2,10,22,38,257,37,25,15,044,27,26,63,196,40,29,24,076,44*77
$GPGSV,3,3,10,31,70,026,41,32,33,130,42*79
$IIGSA,A,1,03,04,14,16,22,25,26,29,31,32,,,1.74,0.9,1.5,*3A
$IIGRS,,,,,,,,,,,,,,*46
$IIROT,-1,A*14
$IIGLL,4202.1273,N,07141.7651,W,,V,N*5F
$IIVTG,006.0,T,020.4,M,0.00,N,0.00,K,N*3B
$IIHDG,102.9,000.0,E,014.4,W*50
$IIVHW,088.5,T,102.9,M,,N,,K*5A
$IIMWV,55.10,R,3.03,M,A*0F
$IIROT,1,A*39
$IIHDG,102.9,000.0,E,014.4,W*50
$IIVHW,088.5,T,102.9,M,,N,,K*5A
$IIROT,-3,A*16
$IIGLL,4202.1273,N,07141.765,W,,V,N*6E
$IIVTG,051.4,T,065.8,M,0.00,N,0.00,K,N*30
$IIHDG,102.9,000.0,E,014.4,W*50
$IIVHW,088.5,T,102.9,M,,N,,K*5A
$IIMWD,143.69,T,,M,5.60,N,2.89,M*53
$IIROT,-6,A*13
$IIXDR,C,7.7,C,ENV_OUTSIDE_T,P,99600,P,ENV_ATMOS_P*43
$IIHDG,102.9,000.0,E,014.4,W*50
$IIVHW,088.5,T,102.9,M,,N,,K*5A
$IIROT,-2,A*17
$IIGLL,4202.1273,N,07141.765,W,,V,N*6E
$IIVTG,236.2,T,250.6,M,0.00,N,0.00,K,N*3F
$IIHDG,102.9,000.0,E,014.4,W*50
$IIVHW,088.5,T,102.9,M,,N,,K*5A
$IIROT,0,A*38
$IIHDG,102.9,000.0,E,014.4,W*50
$IIVHW,088.5,T,102.9,M,,N,,K*5A
$IIMWV,54.80,R,2.77,M,A*05
$IIROT,0,A*38
$IIGLL,4202.1273,N,07141.765,W,,V,N*6E
$IIVTG,235.6,T,250.0,M,0.00,N,0.00,K,N*3E
$IIHDG,102.9,000.0,E,014.4,W*50
$IIVHW,088.5,T,102.9,M,,N,,K*5A
$IIROT,-1,A*14
$IIHDG,102.9,000.0,E,014.4,W*50
$IIVHW,088.5,T,102.9,M,,N,,K*5A
$IIMWD,145.19,T,,M,5.19,N,2.68,M*53
$IIZDA,134200.6,29,03,2020,,*4B
$IIZDA,134200.6,29,03,2020,,*4B
$PMAROUT,ATT,-2.0,-22.2,,,,,,*1D
$IIROT,0,A*38
$IIGLL,4202.1273,N,07141.765,W,,V,N*6E
$IIVTG,243.9,T,258.3,M,0.00,N,0.00,K,N*3B
$IIGSA,A,1,,,,,,,,,,,,,1.74,0.9,1.5,*34
$IIXDR,C,7.7,C,ENV_OUTSIDE_T,P,99600,P,ENV_ATMOS_P*43
$IIXDR,C,7.7,C,ENV_OUTSIDE_T*3C
$IIXDR,P,99670,P,ENV_ATMOS_P*36
$IIHDG,102.9,000.0,E,014.4,W*50
$IIVHW,088.5,T,102.9,M,,N,,K*5A
$IIGGA,134200.6,4202.1273,N,07141.765,W,1,10,0.9,226.8,M,-32,M,,*5B
$IIGLL,4202.1273,N,07141.765,W,134200.6,A,A*6A
$IIROT,-1,A*14
$IIHDG,102.9,000.0,E,014.4,W*50
$IIVHW,088.5,T,102.9,M,,N,,K*5A
$GPGSV,3,1,10,03,37,288,39,04,16,309,27,14,60,122,42,16,31,204,30*7D
$GPGSV,3,2,10,22,38,257,35,25,15,044,26,26,63,196,39,29,24,076,44*7A
$GPGSV,3,3,10,31,70,026,41,32,33,130,41*7A
$IIGSA,A,1,03,04,14,16,22,25,26,29,31,32,,,1.74,0.9,1.5,*3A
$IIGRS,,,,,,,,,,,,,,*46
$IIROT,-1,A*14
$IIGLL,4202.1273,N,07141.765,W,,V,N*6E
$IIVTG,028.0,T,042.4,M,0.00,N,0.00,K,N*33
$IIHDG,102.9,000.0,E,014.4,W*50
$IIVHW,088.5,T,102.9,M,,N,,K*5A
$IIMWV,50.90,R,2.98,M,A*01
$IIROT,0,A*38
$IIHDG,102.9,000.0,E,014.4,W*50
$IIVHW,088.5,T,102.9,M,,N,,K*5A
$IIROT,1,A*39
$IIGLL,4202.1273,N,07141.765,W,,V,N*6E
$IIVTG,053.1,T,067.5,M,0.00,N,0.00,K,N*38
$IIHDG,102.9,000.0,E,014.4,W*50
$IIVHW,088.5,T,102.9,M,,N,,K*5A
$IIMWD,139.80,T,,M,6.08,N,3.13,M*56
$IIROT,2,A*3A
$IIXDR,C,7.7,C,ENV_OUTSIDE_T,P,99600,P,ENV_ATMOS_P*43
$IIHDG,102.9,000.0,E,014.4,W*50
$IIVHW,088.5,T,102.9,M,,N,,K*5A
$IIROT,1,A*39
$IIGLL,4202.1273,N,07141.765,W,,V,N*6E
$IIVTG,271.5,T,285.9,M,0.00,N,0.00,K,N*3C
$IIHDG,102.9,000.0,E,014.4,W*50
$IIVHW,088.5,T,102.9,M,,N,,K*5A
$IIROT,0,A*38
$IIHDG,102.9,000.0,E,014.4,W*50
$IIVHW,088.5,T,102.9,M,,N,,K*5A
$IIMWV,63.90,R,2.58,M,A*0D
$IIROT,-3,A*16
$IIGLL,4202.1273,N,07141.765,W,,V,N*6E
$IIVTG,259.9,T,274.3,M,0.00,N,0.00,K,N*3E
$IIHDG,102.9,000.0,E,014.4,W*50
$IIVHW,088.5,T,102.9,M,,N,,K*5A
$IIROT,-4,A*11
$IIHDG,102.9,000.0,E,014.4,W*50
$IIVHW,088.5,T,102.9,M,,N,,K*5A
$IIMWD,159.20,T,,M,4.49,N,2.31,M*5C
$IIZDA,134201.6,29,03,2020,,*4A
$IIZDA,134201.6,29,03,2020,,*4A
$PMAROUT,ATT,-2.0,-22.2,,,,,,*1D
$IIROT,-5,A*10
$IIGLL,4202.1273,N,07141.765,W,,V,N*6E
$IIVTG,258.2,T,272.6,M,0.00,N,0.00,K,N*37
$IIGSA,A,1,,,,,,,,,,,,,1.74,0.9,1.5,*34
$IIXDR,C,7.7,C,ENV_OUTSIDE_T,P,99600,P,ENV_ATMOS_P*43
$IIHDG,102.9,000.0,E,014.4,W*50
$IIVHW,088.5,T,102.9,M,,N,,K*5A
$IIGGA,134201.6,4202.1273,N,07141.765,W,1,10,0.9,226.8,M,-32,M,,*5A
$IIGLL,4202.1273,N,07141.765,W,134201.6,A,A*6B
$IIROT,-3,A*16
$IIHDG,102.9,000.0,E,014.4,W*50
$IIVHW,088.5,T,102.9,M,,N,,K*5A
$GPGSV,3,1,10,03,37,288,38,04,16,309,29,14,60,122,42,16,31,204,29*7A
$GPGSV,3,2,10,22,38,257,36,25,15,044,27,26,63,196,39,29,24,076,44*78
$GPGSV,3,3,10,31,70,026,41,32,33,130,42*79
$IIGSA,A,1,03,04,14,16,22,25,26,29,31,32,,,1.74,0.9,1.5,*3A
$IIGRS,,,,,,,,,,,,,,*46
$IIROT,-5,A*10
$IIGLL,4202.1273,N,07141.765,W,,V,N*6E
$IIVTG,021.9,T,036.3,M,0.00,N,0.00,K,N*37
$IIHDG,102.9,000.0,E,014.4,W*50
$IIVHW,088.5,T,102.9,M,,N,,K*5A
$IIMWV,74.09,R,2.1,M,A*37
$IIROT,-6,A*13
$IIHDG,102.9,000.0,E,014.4,W*50
$IIVHW,088.5,T,102.9,M,,N,,K*5A
$IIROT,-4,A*11
$IIGLL,4202.1273,N,07141.765,W,,V,N*6E
$IIVTG,052.3,T,066.7,M,0.00,N,0.00,K,N*38
$IIHDG,102.9,000.0,E,014.4,W*50
$IIVHW,088.5,T,102.9,M,,N,,K*5A
$IIMWD,159.29,T,,M,3.89,N,2,M*72
$IIROT,-6,A*13
$IIXDR,C,7.7,C,ENV_OUTSIDE_T,P,99600,P,ENV_ATMOS_P*43
$IIHDG,102.9,000.0,E,014.4,W*50
$IIVHW,088.5,T,102.9,M,,N,,K*5A
$IIROT,-3,A*16
$IIGLL,4202.1273,N,07141.765,W,,V,N*6E
$IIVTG,238.3,T,252.7,M,0.00,N,0.00,K,N*33
$IIHDG,102.9,000.0,E,014.4,W*50
$IIVHW,088.5,T,102.9,M,,N,,K*5A
$IIROT,-4,A*11
$IIHDG,102.9,000.0,E,014.4,W*50
$IIVHW,088.5,T,102.9,M,,N,,K*5A
$IIMWV,63.90,R,1.95,M,A*0F
$IIROT,0,A*38
$IIGLL,4202.1273,N,07141.765,W,,V,N*6E
$IIVTG,235.7,T,250.1,M,0.00,N,0.00,K,N*3E
$IIHDG,102.9,000.0,E,014.4,W*50
$IIVHW,088.5,T,102.9,M,,N,,K*5A
$IIROT,0,A*38
$IIHDG,102.9,000.0,E,014.4,W*50
$IIVHW,088.5,T,102.9,M,,N,,K*5A
$IIMWD,150.29,T,,M,3.89,N,2,M*7B
$IIZDA,134202.6,29,03,2020,,*49
$IIZDA,134202.6,29,03,2020,,*49
$PMAROUT,ATT,-1.9,-22.2,,,,,,*17
$IIROT,2,A*3A
$IIGLL,4202.1273,N,07141.765,W,,V,N*6E
$IIVTG,264.1,T,278.5,M,0.00,N,0.00,K,N*32
$IIGSA,A,1,,,,,,,,,,,,,1.74,0.9,1.5,*34
$IIXDR,C,7.7,C,ENV_OUTSIDE_T,P,99600,P,ENV_ATMOS_P*43
$IIXDR,C,7.7,C,ENV_OUTSIDE_T*3C
$IIXDR,P,99670,P,ENV_ATMOS_P*36
$IIHDG,102.9,000.0,E,014.4,W*50
$IIVHW,088.5,T,102.9,M,,N,,K*5A
$IIDTM,W84,,0,N,0,E,0,W84*66
$IIGGA,134202.6,4202.1273,N,07141.765,W,1,10,0.9,226.8,M,-32,M,,*59
$IIGLL,4202.1273,N,07141.765,W,134202.6,A,A*68
$IIROT,3,A*3B
$IIHDG,102.9,000.0,E,014.4,W*50
$IIVHW,088.5,T,102.9,M,,N,,K*5A
$GPGSV,3,1,10,03,37,288,38,04,16,309,27,14,60,122,42,16,31,204,31*7D
$GPGSV,3,2,10,22,38,257,35,25,15,044,26,26,63,196,40,29,24,076,44*74
$GPGSV,3,3,10,31,70,026,42,32,33,130,42*7A
$IIGSA,A,1,03,04,14,16,22,25,26,29,31,32,,,1.74,0.9,1.5,*3A
$IIGRS,,,,,,,,,,,,,,*46
$IIROT,6,A*3E
$IIGLL,4202.1273,N,07141.765,W,,V,N*6E
$IIVTG,052.8,T,067.2,M,0.00,N,0.00,K,N*37
$IIHDG,102.9,000.0,E,014.4,W*50
$IIVHW,088.5,T,102.9,M,,N,,K*5A
$IIMWV,60.19,R,2.22,M,A*02
$IIROT,4,A*3C
$IIHDG,102.9,000.0,E,014.4,W*50
$IIVHW,088.5,T,102.9,M,,N,,K*5A
$IIROT,1,A*39
$IIGLL,4202.1273,N,07141.765,W,,V,N*6E
$IIVTG,068.9,T,083.3,M,0.00,N,0.00,K,N*34
$IIHDG,102.9,000.0,E,014.4,W*50
$IIVHW,088.5,T,102.9,M,,N,,K*5A
$IIMWD,136.00,T,,M,4.90,N,2.52,M*56
$IIROT,5,A*3D
$IIXDR,C,7.7,C,ENV_OUTSIDE_T,P,99600,P,ENV_ATMOS_P*43
$IIHDG,102.9,000.0,E,014.4,W*50
$IIVHW,088.5,T,102.9,M,,N,,K*5A
$IIROT,-1,A*14
$IIGLL,4202.1273,N,07141.765,W,,V,N*6E
$IIVTG,246.7,T,261.1,M,0.00,N,0.00,K,N*38
$IIHDG,102.9,000.0,E,014.4,W*50
$IIVHW,088.5,T,102.9,M,,N,,K*5A
$IIROT,-6,A*13
$IIHDG,102.9,000.0,E,014.4,W*50
$IIVHW,088.5,T,102.9,M,,N,,K*5A
$IIMWV,44.00,R,2.52,M,A*0B
$IIROT,-5,A*10
$IIGLL,4202.1273,N,07141.765,W,,V,N*6E
$IIVTG,254.0,T,268.4,M,0.00,N,0.00,K,N*30
$IIHDG,102.9,000.0,E,014.4,W*50
$IIVHW,088.5,T,102.9,M,,N,,K*5A
$IIROT,-7,A*12
$IIHDG,102.9,000.0,E,014.4,W*50
$IIVHW,088.5,T,102.9,M,,N,,K*5A
$IIMWD,144.90,T,,M,4.59,N,2.37,M*5C
$IIZDA,134203.6,29,03,2020,,*48
$IIZDA,134203.6,29,03,2020,,*48
$PMAROUT,ATT,-2.0,-22.2,,,,,,*1D
$IIROT,-5,A*10
$IIGLL,4202.1273,N,07141.765,W,,V,N*6E
$IIVTG,233.5,T,247.9,M,0.00,N,0.00,K,N*34
$IIGSA,A,1,,,,,,,,,,,,,1.74,0.9,1.5,*34
$IIXDR,C,7.7,C,ENV_OUTSIDE_T,P,99600,P,ENV_ATMOS_P*43
$IIHDG,102.9,000.0,E,014.4,W*50
$IIVHW,088.5,T,102.9,M,,N,,K*5A
$IIGGA,134203.6,4202.1273,N,07141.765,W,1,10,0.9,226.8,M,-32,M,,*58
$IIGLL,4202.1273,N,07141.765,W,134203.6,A,A*69
$IIROT,-3,A*16
$IIHDG,102.9,000.0,E,014.4,W*50
$IIVHW,088.5,T,102.9,M,,N,,K*5A
$GPGSV,3,1,10,03,37,288,38,04,16,309,28,14,60,122,42,16,31,204,29*7B
$GPGSV,3,2,10,22,38,257,35,25,15,044,25,26,63,196,40,29,24,076,44*77
$GPGSV,3,3,10,31,70,026,42,32,33,130,42*7A
$IIGSA,A,1,03,04,14,16,22,25,26,29,31,32,,,1.74,0.9,1.5,*3A
$IIGRS,,,,,,,,,,,,,,*46
$IIROT,-1,A*14
$IIGLL,4202.1273,N,07141.765,W,,V,N*6E
$IIVTG,058.6,T,073.0,M,0.00,N,0.00,K,N*34
$IIHDG,102.9,000.0,E,014.4,W*50
$IIVHW,088.5,T,102.9,M,,N,,K*5A
$IIMWV,89.20,R,2.05,M,A*0A
$IIROT,-5,A*10
$IIHDG,102.9,000.0,E,014.4,W*50
$IIVHW,088.5,T,102.9,M,,N,,K*5A
$IIROT,-6,A*13
$IIGLL,4202.1273,N,07141.765,W,,V,N*6E
$IIVTG,069.0,T,083.4,M,0.00,N,0.00,K,N*3B
$IIHDG,102.9,000.0,E,014.4,W*50
$IIVHW,088.5,T,102.9,M,,N,,K*5A
$IIMWD,184.89,T,,M,5.79,N,2.98,M*5E
$IIROT,-3,A*16
$IIXDR,C,7.7,C,ENV_OUTSIDE_T,P,99600,P,ENV_ATMOS_P*43
$IIHDG,102.9,000.0,E,014.4,W*50
$IIVHW,088.5,T,102.9,M,,N,,K*5A
$IIROT,0,A*38
$IIGLL,4202.1273,N,07141.765,W,,V,N*6E
$IIVTG,341.9,T,356.3,M,0.00,N,0.00,K,N*37
$IIHDG,102.9,000.0,E,014.4,W*50
$IIVHW,088.5,T,102.9,M,,N,,K*5A
$IIROT,3,A*3B
$IIHDG,102.9,000.0,E,014.4,W*50
$IIVHW,088.5,T,102.9,M,,N,,K*5A
$IIMWV,101.49,R,3.35,M,A*36
$IIROT,1,A*39
$IIGLL,4202.1273,N,07141.765,W,,V,N*6E
$IIVTG,229.9,T,244.3,M,0.00,N,0.00,K,N*3A
$IIHDG,102.9,000.0,E,014.4,W*50
$IIVHW,088.5,T,102.9,M,,N,,K*5A
$IIROT,1,A*39
$IIHDG,102.9,000.0,E,014.4,W*50
$IIVHW,088.5,T,102.9,M,,N,,K*5A
$IIMWD,195.29,T,,M,5.79,N,2.98,M*54
$IIZDA,134204.6,29,03,2020,,*4F
$IIZDA,134204.6,29,03,2020,,*4F
$PMAROUT,ATT,-2.0,-22.2,,,,,,*1D
$IIROT,-4,A*11
$IIGLL,4202.1273,N,07141.765,W,,V,N*6E
$IIVTG,240.7,T,255.1,M,0.00,N,0.00,K,N*39
$IIGSA,A,1,,,,,,,,,,,,,1.74,0.9,1.5,*34
$IIXDR,C,7.7,C,ENV_OUTSIDE_T,P,99600,P,ENV_ATMOS_P*43
$IIXDR,C,7.7,C,ENV_OUTSIDE_T*3C
$IIXDR,P,99660,P,ENV_ATMOS_P*37
$IIHDG,102.9,000.0,E,014.4,W*50
$IIVHW,088.5,T,102.9,M,,N,,K*5A
$IIGGA,134204.6,4202.1273,N,07141.765,W,1,10,0.9,226.8,M,-32,M,,*5F
$IIGLL,4202.1273,N,07141.765,W,134204.6,A,A*6E
$IIROT,-5,A*10
$IIHDG,102.9,000.0,E,014.4,W*50
$IIVHW,088.5,T,102.9,M,,N,,K*5A
$GPGSV,3,1,10,03,37,288,38,04,16,309,28,14,60,122,42,16,31,204,28*7A
$GPGSV,3,2,10,22,38,257,35,25,15,044,27,26,63,196,40,29,24,076,44*75
$GPGSV,3,3,10,31,70,026,42,32,33,130,42*7A
$IIGSA,A,1,03,04,14,16,22,25,26,29,31,32,,,1.74,0.9,1.5,*3A
$IIGRS,,,,,,,,,,,,,,*46
$IIROT,-3,A*16
$IIGLL,4202.1273,N,07141.765,W,,V,N*6E
$IIVTG,067.5,T,081.9,M,0.00,N,0.00,K,N*3F
$IIHDG,102.9,000.0,E,014.4,W*50
$IIVHW,088.5,T,102.9,M,,N,,K*5A
$IIMWV,108.90,R,2.47,M,A*3F
$IIROT,-3,A*16
$IIHDG,102.9,000.0,E,014.4,W*50
$IIVHW,088.5,T,102.9,M,,N,,K*5A
$IIROT,-5,A*10
$IIGLL,4202.1273,N,07141.765,W,,V,N*6E
$IIVTG,051.2,T,065.6,M,0.00,N,0.00,K,N*38
$IIHDG,102.9,000.0,E,014.4,W*50
$IIVHW,088.5,T,102.9,M,,N,,K*5A
$IIMWD,194.10,T,,M,4.68,N,2.41,M*5A
$IIROT,-1,A*14
$IIXDR,C,7.7,C,ENV_OUTSIDE_T,P,99600,P,ENV_ATMOS_P*43
$IIHDG,102.9,000.0,E,014.4,W*50
$IIVHW,088.5,T,102.9,M,,N,,K*5A
$IIROT,-3,A*16
$IIGLL,4202.1273,N,07141.765,W,,V,N*6E
$IIVTG,276.1,T,290.5,M,0.00,N,0.00,K,N*37
$IIHDG,102.9,000.0,E,014.4,W*50
$IIVHW,088.5,T,102.9,M,,N,,K*5A
$IIROT,-1,A*14
$IIHDG,102.9,000.0,E,014.4,W*50
$IIVHW,088.5,T,102.9,M,,N,,K*5A
$IIMWV,109.19,R,2.41,M,A*39
$IIROT,5,A*3D
$IIGLL,4202.1272,N,07141.7649,W,,V,N*57
$IIVTG,263.5,T,277.9,M,0.00,N,0.00,K,N*32
$IIHDG,102.9,000.0,E,014.4,W*50
$IIVHW,088.5,T,102.9,M,,N,,K*5A
$IIROT,9,A*31
$IIHDG,102.9,000.0,E,014.4,W*50
$IIVHW,088.5,T,102.9,M,,N,,K*5A
$IIMWD,197.89,T,,M,4.20,N,2.16,M*57
$IIZDA,134205.6,29,03,2020,,*4E
$IIZDA,134205.6,29,03,2020,,*4E
$PMAROUT,ATT,-1.9,-22.2,,,,,,*17
$IIROT,5,A*3D
$IIGLL,4202.1272,N,07141.7649,W,,V,N*57
$IIVTG,255.2,T,269.6,M,0.00,N,0.00,K,N*30
$IIGSA,A,1,,,,,,,,,,,,,1.74,0.9,1.5,*34
$IIXDR,C,7.7,C,ENV_OUTSIDE_T,P,99600,P,ENV_ATMOS_P*43
$IIHDG,102.9,000.0,E,014.4,W*50
$IIVHW,088.5,T,102.9,M,,N,,K*5A
$IIGGA,134205.6,4202.1272,N,07141.7649,W,1,10,0.9,226.8,M,-32,M,,*67
$IIGLL,4202.1272,N,07141.7649,W,134205.6,A,A*56
$IIROT,5,A*3D
$IIHDG,102.9,000.0,E,014.4,W*50
$IIVHW,088.5,T,102.9,M,,N,,K*5A
$GPGSV,3,1,10,03,37,288,38,04,16,309,26,14,60,122,42,16,31,204,30*7D
$GPGSV,3,2,10,22,38,257,35,25,15,044,28,26,63,196,40,29,24,076,44*7A
$GPGSV,3,3,10,31,70,027,42,32,33,130,42*7B
$IIGSA,A,1,03,04,14,16,22,25,26,29,31,32,,,1.74,0.9,1.5,*3A
$IIGRS,,,,,,,,,,,,,,*46
$IIROT,1,A*39
$IIGLL,4202.1272,N,07141.7649,W,,V,N*57
$IIVTG,052.8,T,067.2,M,0.00,N,0.00,K,N*37
$IIHDG,102.9,000.0,E,014.4,W*50
$IIVHW,088.5,T,102.9,M,,N,,K*5A
$IIMWV,103.69,R,1.91,M,A*3A
$IIROT,-2,A*17
$IIHDG,102.9,000.0,E,014.4,W*50
$IIVHW,088.5,T,102.9,M,,N,,K*5A
$IIROT,0,A*38
$IIGLL,4202.1272,N,07141.7649,W,,V,N*57
$IIVTG,062.2,T,076.6,M,0.00,N,0.00,K,N*3A
$IIHDG,102.9,000.0,E,014.4,W*50
$IIVHW,088.5,T,102.9,M,,N,,K*5A
$IIMWD,183.99,T,,M,3.89,N,2,M*7E
$IIROT,0,A*38
$IIXDR,C,7.7,C,ENV_OUTSIDE_T,P,99600,P,ENV_ATMOS_P*43
$IIHDG,102.9,000.0,E,014.4,W*50
$IIVHW,088.5,T,102.9,M,,N,,K*5A
$IIROT,2,A*3A
$IIGLL,4202.1272,N,07141.7649,W,,V,N*57
$IIVTG,184.2,T,198.6,M,0.00,N,0.00,K,N*32
$IIHDG,102.9,000.0,E,014.4,W*50
$IIVHW,088.5,T,102.9,M,,N,,K*5A
$IIROT,0,A*38
$IIHDG,102.9,000.0,E,014.4,W*50
$IIVHW,088.5,T,102.9,M,,N,,K*5A
$IIMWV,89.20,R,2.16,M,A*08
$IIROT,0,A*38
$IIGLL,4202.1272,N,07141.7649,W,,V,N*57
$IIVTG,272.4,T,286.8,M,0.00,N,0.00,K,N*3C
$IIHDG,102.9,000.0,E,014.4,W*50
$IIVHW,088.5,T,102.9,M,,N,,K*5A
$IIROT,0,A*38
$IIHDG,102.9,000.0,E,014.4,W*50
$IIVHW,088.5,T,102.9,M,,N,,K*5A
$IIMWD,166.50,T,,M,4.08,N,2.1,M*61
$IIZDA,134206.6,29,03,2020,,*4D
$IIZDA,134206.6,29,03,2020,,*4D
$PMAROUT,ATT,-1.9,-22.3,,,,,,*16
$IIROT,-4,A*11
$IIGLL,4202.1272,N,07141.7649,W,,V,N*57
$IIVTG,251.2,T,265.6,M,0.00,N,0.00,K,N*38
$IIGSA,A,1,,,,,,,,,,,,,1.74,0.9,1.5,*34
$IIXDR,C,7.7,C,ENV_OUTSIDE_T,P,99600,P,ENV_ATMOS_P*43
$IIXDR,C,7.7,C,ENV_OUTSIDE_T*3C
$IIXDR,P,99670,P,ENV_ATMOS_P*36
$IIHDG,102.9,000.0,E,014.4,W*50
$IIVHW,088.5,T,102.9,M,,N,,K*5A
$IIGGA,134206.6,4202.1272,N,07141.7649,W,1,10,0.9,226.8,M,-32,M,,*64
$IIGLL,4202.1272,N,07141.7649,W,134206.6,A,A*55
$IIROT,-3,A*16
$IIHDG,102.9,000.0,E,014.4,W*50
$IIVHW,088.5,T,102.9,M,,N,,K*5A
$GPGSV,3,1,10,03,37,288,39,04,16,309,26,14,60,122,42,16,31,204,31*7D
$GPGSV,3,2,10,22,38,257,35,25,15,044,26,26,63,196,39,29,24,076,44*7A
$GPGSV,3,3,10,31,70,027,42,32,33,130,43*7A
$IIGSA,A,1,03,04,14,16,22,25,26,29,31,32,,,1.74,0.9,1.5,*3A
$IIGRS,,,,,,,,,,,,,,*46
$IIROT,0,A*38
$IIGLL,4202.1272,N,07141.7649,W,,V,N*57
$IIVTG,038.3,T,052.7,M,0.00,N,0.00,K,N*33
$IIHDG,102.9,000.0,E,014.4,W*50
$IIVHW,088.5,T,102.9,M,,N,,K*5A
$IIMWV,63.70,R,2.22,M,A*0E
$IIROT,-2,A*17
$IIHDG,102.9,000.0,E,014.4,W*50
$IIVHW,088.5,T,102.9,M,,N,,K*5A
$IIROT,-5,A*10
$IIGLL,4202.1272,N,07141.7649,W,,V,N*57
$IIVTG,079.3,T,093.7,M,0.00,N,0.00,K,N*3B
$IIHDG,102.9,000.0,E,014.4,W*50
$IIVHW,088.5,T,102.9,M,,N,,K*5A
$IIMWD,141.80,T,,M,5.19,N,2.68,M*57
$IIROT,-5,A*10
$IIXDR,C,7.7,C,ENV_OUTSIDE_T,P,99600,P,ENV_ATMOS_P*43
$IIHDG,102.9,000.0,E,014.4,W*50
$IIVHW,088.5,T,102.9,M,,N,,K*5A
$IIROT,-5,A*10
$IIGLL,4202.1272,N,07141.7649,W,,V,N*57
$IIVTG,254.6,T,269.0,M,0.00,N,0.00,K,N*33
$IIHDG,102.9,000.0,E,014.4,W*50
$IIVHW,088.5,T,102.9,M,,N,,K*5A
$IIROT,-4,A*11
$IIHDG,102.9,000.0,E,014.4,W*50
$IIVHW,088.5,T,102.9,M,,N,,K*5A
$IIMWV,51.80,R,2.68,M,A*0E
$IIROT,-4,A*11
$IIGLL,4202.1272,N,07141.7649,W,,V,N*57
$IIVTG,257.8,T,272.2,M,0.00,N,0.00,K,N*36
$IIHDG,102.9,000.0,E,014.4,W*50
$IIVHW,088.5,T,102.9,M,,N,,K*5A
$IIROT,-2,A*17
$IIHDG,102.9,000.0,E,014.4,W*50
$IIVHW,088.5,T,102.9,M,,N,,K*5A
$IIMWD,141.69,T,,M,5.00,N,2.58,M*5B
$IIZDA,134207.6,29,03,2020,,*4C
$IIZDA,134207.6,29,03,2020,,*4C
$PMAROUT,ATT,-2.0,-22.2,,,,,,*1D
$IIROT,-4,A*11
$IIGLL,4202.1272,N,07141.7649,W,,V,N*57
$IIVTG,280.9,T,295.3,M,0.00,N,0.00,K,N*35
$IIGSA,A,1,,,,,,,,,,,,,1.74,0.9,1.5,*34
$IIXDR,C,7.7,C,ENV_OUTSIDE_T,P,99600,P,ENV_ATMOS_P*43
$IIHDG,102.9,000.0,E,014.4,W*50
$IIVHW,088.5,T,102.9,M,,N,,K*5A
$IIGGA,134207.6,4202.1272,N,07141.7649,W,1,10,0.9,226.8,M,-32,M,,*65
$IIGLL,4202.1272,N,07141.7649,W,134207.6,A,A*54
$IIROT,-6,A*13
$IIHDG,102.9,000.0,E,014.4,W*50
$IIVHW,088.5,T,102.9,M,,N,,K*5A
$GPGSV,3,1,10,03,37,288,39,04,16,309,25,14,60,122,42,16,31,204,29*77
$GPGSV,3,2,10,22,38,257,35,25,15,044,28,26,63,196,40,29,24,076,44*7A
$GPGSV,3,3,10,31,70,027,42,32,33,130,43*7A
$IIGSA,A,1,03,04,14,16,22,25,26,29,31,32,,,1.74,0.9,1.5,*3A
$IIGRS,,,,,,,,,,,,,,*46
$IIROT,0,A*38
$IIGLL,4202.1272,N,07141.7649,W,,V,N*57
$IIVTG,079.9,T,094.3,M,0.00,N,0.00,K,N*32
$IIHDG,102.9,000.0,E,014.4,W*50
$IIVHW,088.5,T,102.9,M,,N,,K*5A
$IIMWV,52.90,R,2.47,M,A*01
$IIROT,1,A*39
$IIHDG,102.9,000.0,E,014.4,W*50
$IIVHW,088.5,T,102.9,M,,N,,K*5A
$IIROT,2,A*3A
$IIGLL,4202.1272,N,07141.7649,W,,V,N*57
$IIVTG,083.2,T,097.6,M,0.00,N,0.00,K,N*3A
$IIHDG,102.9,000.0,E,014.4,W*50
$IIVHW,088.5,T,102.9,M,,N,,K*5A
$IIMWD,147.79,T,,M,4.20,N,2.16,M*55
$IIROT,-2,A*17
$IIXDR,C,7.7,C,ENV_OUTSIDE_T,P,99600,P,ENV_ATMOS_P*43
$IIHDG,102.9,000.0,E,014.4,W*50
$IIVHW,088.5,T,102.9,M,,N,,K*5A
$IIROT,-2,A*17
$IIGLL,4202.1272,N,07141.7649,W,,V,N*57
$IIVTG,285.4,T,299.8,M,0.00,N,0.00,K,N*3A
$IIHDG,102.9,000.0,E,014.4,W*50
$IIVHW,088.5,T,102.9,M,,N,,K*5A
$IIROT,-4,A*11
$IIHDG,102.9,000.0,E,014.4,W*50
$IIVHW,088.5,T,102.9,M,,N,,K*5A
$IIMWV,52.20,R,2.26,M,A*0D
$IIROT,-2,A*17
$IIGLL,4202.1272,N,07141.7649,W,,V,N*57
$IIVTG,247.0,T,261.4,M,0.00,N,0.00,K,N*3B
$IIHDG,102.9,000.0,E,014.4,W*50
$IIVHW,088.5,T,102.9,M,,N,,K*5A
$IIROT,-4,A*11
$IIHDG,102.9,000.0,E,014.4,W*50
$IIVHW,088.5,T,102.9,M,,N,,K*5A
$IIMWD,132.70,T,,M,3.79,N,1.95,M*5D
$IIZDA,134208.6,29,03,2020,,*43
$IIZDA,134208.6,29,03,2020,,*43
$PMAROUT,ATT,-2.0,-22.2,,,,,,*1D
$IIROT,-7,A*12
$IIGLL,4202.1272,N,07141.7649,W,,V,N*57
$IIVTG,263.3,T,277.7,M,0.00,N,0.00,K,N*3A
$IIGSA,A,1,,,,,,,,,,,,,1.74,0.9,1.5,*34
$IIXDR,C,7.7,C,ENV_OUTSIDE_T,P,99600,P,ENV_ATMOS_P*43
$IIXDR,C,7.7,C,ENV_OUTSIDE_T*3C
$IIXDR,P,99660,P,ENV_ATMOS_P*37
$IIHDG,102.9,000.0,E,014.4,W*50
$IIVHW,088.5,T,102.9,M,,N,,K*5A
$IIGGA,134208.6,4202.1272,N,07141.7649,W,1,10,0.9,226.8,M,-32,M,,*6A
$IIGLL,4202.1272,N,07141.7649,W,134208.6,A,A*5B
$IIROT,-7,A*12
$IIHDG,102.9,000.0,E,014.4,W*50
$IIVHW,088.5,T,102.9,M,,N,,K*5A
$GPGSV,3,1,10,03,37,288,38,04,16,309,26,14,60,122,42,16,31,204,29*75
$GPGSV,3,2,10,22,38,257,33,25,15,044,29,26,63,196,40,29,24,076,44*7D
$GPGSV,3,3,10,31,70,027,42,32,33,130,43*7A
$IIGSA,A,1,03,04,14,16,22,25,26,29,31,32,,,1.74,0.9,1.5,*3A
$IIGRS,,,,,,,,,,,,,,*46
$IIROT,-6,A*13
$IIGLL,4202.1272,N,07141.7649,W,,V,N*57
$IIVTG,102.7,T,117.1,M,0.00,N,0.00,K,N*39
$IIHDG,102.9,000.0,E,014.4,W*50
$IIVHW,088.5,T,102.9,M,,N,,K*5A
$IIMWV,36.10,R,1.8,M,A*33
$IIROT,-2,A*17
$IIHDG,102.9,000.0,E,014.4,W*50
$IIVHW,088.5,T,102.9,M,,N,,K*5A
$IIROT,0,A*38
$IIGLL,4202.1272,N,07141.7648,W,,V,N*56
$IIVTG,112.7,T,127.1,M,0.00,N,0.00,K,N*3B
$IIHDG,102.9,000.0,E,014.4,W*50
$IIVHW,088.5,T,102.9,M,,N,,K*5A
$IIMWD,122.69,T,,M,2.99,N,1.54,M*56
$IIROT,3,A*3B
$IIXDR,C,7.7,C,ENV_OUTSIDE_T,P,99600,P,ENV_ATMOS_P*43
$IIHDG,102.9,000.0,E,014.4,W*50
$IIVHW,088.5,T,102.9,M,,N,,K*5A
$IIROT,0,A*38
$IIGLL,4202.1272,N,07141.7648,W,,V,N*56
$IIVTG,130.1,T,144.5,M,0.00,N,0.00,K,N*3C
$IIHDG,102.9,000.0,E,014.4,W*50
$IIVHW,088.5,T,102.9,M,,N,,K*5A
$IIROT,0,A*38
$IIHDG,102.9,000.0,E,014.4,W*50
$IIVHW,088.5,T,102.9,M,,N,,K*5A
$IIMWV,41.49,R,1.28,M,A*0D
$IIROT,0,A*38
$IIGLL,4202.1272,N,07141.7648,W,,V,N*56
$IIVTG,141.6,T,156.0,M,0.00,N,0.00,K,N*3B
$IIHDG,102.9,000.0,E,014.4,W*50
$IIVHW,088.5,T,102.9,M,,N,,K*5A
$IIROT,-2,A*17
$IIHDG,102.9,000.0,E,014.4,W*50
$IIVHW,088.5,T,102.9,M,,N,,K*5A
$IIMWD,160.59,T,,M,2.10,N,1.08,M*5B
$IIZDA,134209.6,29,03,2020,,*42
$IIZDA,134209.6,29,03,2020,,*42
$PMAROUT,ATT,-2.0,-22.2,,,,,,*1D
$IIROT,-2,A*17
$IIGLL,4202.1272,N,07141.7648,W,,V,N*56
$IIVTG,148.2,T,162.6,M,0.00,N,0.00,K,N*37
$IIGSA,A,1,,,,,,,,,,,,,1.74,0.9,1.5,*34
$IIXDR,C,7.7,C,ENV_OUTSIDE_T,P,99600,P,ENV_ATMOS_P*43
$IIHDG,102.9,000.0,E,014.4,W*50
$IIVHW,088.5,T,102.9,M,,N,,K*5A
$IIGGA,134209.6,4202.1272,N,07141.7648,W,1,10,0.9,226.8,M,-32,M,,*6A
$IIGLL,4202.1272,N,07141.7648,W,134209.6,A,A*5B
$IIROT,-2,A*17
$IIHDG,102.9,000.0,E,014.4,W*50
$IIVHW,088.5,T,102.9,M,,N,,K*5A
$GPGSV,3,1,10,03,37,288,39,04,16,309,25,14,60,122,42,16,31,204,30*7F
$GPGSV,3,2,10,22,38,257,34,25,15,044,28,26,63,196,39,29,24,076,44*75
$GPGSV,3,3,10,31,70,027,42,32,33,130,42*7B
$IIGSA,A,1,03,04,14,16,22,25,26,29,31,32,,,1.74,0.9,1.5,*3A
$IIGRS,,,,,,,,,,,,,,*46
$IIROT,-2,A*17
$IIGLL,4202.1272,N,07141.7648,W,,V,N*56
$IIVTG,117.3,T,131.7,M,0.00,N,0.00,K,N*3B
$IIHDG,102.9,000.0,E,014.4,W*50
$IIVHW,088.5,T,102.9,M,,N,,K*5A
$IIMWV,80.99,R,1.02,M,A*05
$IIROT,-1,A*14
$IIHDG,102.9,000.0,E,014.4,W*50
$IIVHW,088.5,T,102.9,M,,N,,K*5A
$IIROT,0,A*38
$IIGLL,4202.1272,N,07141.7648,W,,V,N*56
$IIVTG,109.5,T,123.9,M,0.00,N,0.00,K,N*3F
$IIHDG,102.9,000.0,E,014.4,W*50
$IIVHW,088.5,T,102.9,M,,N,,K*5A
$IIMWD,177.69,T,,M,2.20,N,1.13,M*57
$IIROT,-3,A*16
$IIXDR,C,7.7,C,ENV_OUTSIDE_T,P,99600,P,ENV_ATMOS_P*43
$IIHDG,102.9,000.0,E,014.4,W*50
$IIVHW,088.5,T,102.9,M,,N,,K*5A
$IIROT,-5,A*10
$IIGLL,4202.1272,N,07141.7648,W,,V,N*56
$IIVTG,135.8,T,150.2,M,0.00,N,0.00,K,N*32
$IIHDG,102.9,000.0,E,014.4,W*50
$IIVHW,088.5,T,102.9,M,,N,,K*5A
$IIROT,-5,A*10
$IIHDG,102.9,000.0,E,014.4,W*50
$IIVHW,088.5,T,102.9,M,,N,,K*5A
$IIMWV,80.60,R,1.18,M,A*08
$IIROT,-2,A*17
$IIGLL,4202.1272,N,07141.7648,W,,V,N*56
$IIVTG,136.0,T,150.4,M,0.00,N,0.00,K,N*3F
$IIHDG,102.9,000.0,E,014.4,W*50
$IIVHW,088.5,T,102.9,M,,N,,K*5A
$IIROT,-5,A*10
$IIHDG,102.9,000.0,E,014.4,W*50
$IIVHW,088.5,T,102.9,M,,N,,K*5A
$IIMWD,129.99,T,,M,2.29,N,1.18,M*51
$IIZDA,134210.6,29,03,2020,,*4A
$IIZDA,134210.6,29,03,2020,,*4A
$PMAROUT,ATT,-1.9,-22.2,,,,,,*17
$IIROT,-5,A*10
$IIGLL,4202.1272,N,07141.7648,W,,V,N*56
$IIVTG,172.2,T,186.6,M,0.00,N,0.00,K,N*34
$IIGSA,A,1,,,,,,,,,,,,,1.74,0.9,1.5,*34
$IIXDR,C,7.7,C,ENV_OUTSIDE_T,P,99600,P,ENV_ATMOS_P*43
$IIXDR,C,7.7,C,ENV_OUTSIDE_T*3C
$IIXDR,P,99660,P,ENV_ATMOS_P*37
$IIHDG,102.9,000.0,E,014.4,W*50
$IIVHW,088.5,T,102.9,M,,N,,K*5A
$IIGGA,134210.6,4202.1272,N,07141.7648,W,1,10,0.9,226.9,M,-32,M,,*63
$IIGLL,4202.1272,N,07141.7648,W,134210.6,A,A*53
$IIROT,-3,A*16
$IIHDG,102.9,000.0,E,014.4,W*50
$IIVHW,088.5,T,102.9,M,,N,,K*5A
$GPGSV,3,1,10,03,37,288,39,04,16,309,24,14,60,122,42,16,31,204,31*7F
$GPGSV,3,2,10,22,38,257,35,25,15,044,29,26,64,196,39,29,24,076,44*72
$GPGSV,3,3,10,31,70,027,42,32,33,130,43*7A
$IIGSA,A,1,03,04,14,16,22,25,26,29,31,32,,,1.74,0.9,1.5,*3A
$IIGRS,,,,,,,,,,,,,,*46
$IIROT,-2,A*17
$IIGLL,4202.1272,N,07141.7648,W,,V,N*56
$IIVTG,120.6,T,135.0,M,0.00,N,0.00,K,N*39
$IIHDG,102.9,000.0,E,014.4,W*50
$IIVHW,088.5,T,102.9,M,,N,,K*5A
$IIMWV,30.19,R,1.45,M,A*05
$IIROT,-3,A*16
$IIHDG,102.9,000.0,E,014.4,W*50
$IIVHW,088.5,T,102.9,M,,N,,K*5A
$IIROT,-5,A*10
$IIGLL,4202.1272,N,07141.7648,W,,V,N*56
$IIVTG,111.4,T,125.8,M,0.00,N,0.00,K,N*30
$IIHDG,102.9,000.0,E,014.4,W*50
$IIVHW,088.5,T,102.9,M,,N,,K*5A
$IIMWD,99.60,T,,M,2.59,N,1.33,M*63
$IIROT,-5,A*10
$IIXDR,C,7.7,C,ENV_OUTSIDE_T,P,99600,P,ENV_ATMOS_P*43
$IIHDG,102.9,000.0,E,014.4,W*50
$IIVHW,088.5,T,102.9,M,,N,,K*5A
$IIROT,-5,A*10
$IIGLL,4202.1272,N,07141.7648,W,,V,N*56
$IIVTG,145.2,T,159.6,M,0.00,N,0.00,K,N*32
$IIHDG,102.9,000.0,E,014.4,W*50
$IIVHW,088.5,T,102.9,M,,N,,K*5A
$IIROT,-5,A*10
$IIHDG,102.9,000.0,E,014.4,W*50
$IIVHW,088.5,T,102.9,M,,N,,K*5A
$IIMWV,10.20,R,1.02,M,A*0E
$IIROT,-4,A*11
$IIGLL,4202.1271,N,07141.7647,W,,V,N*5A
$IIVTG,170.9,T,185.3,M,0.00,N,0.00,K,N*3B
$IIHDG,102.9,000.0,E,014.4,W*50
$IIVHW,088.5,T,102.9,M,,N,,K*5A
$IIROT,-4,A*11
$IIHDG,102.9,000.0,E,014.4,W*50
$IIVHW,088.5,T,102.9,M,,N,,K*5A
$IIMWD,131.89,T,,M,2.10,N,1.08,M*52
$IIZDA,134211.6,29,03,2020,,*4B
$IIZDA,134211.6,29,03,2020,,*4B
$PMAROUT,ATT,-2.0,-22.2,,,,,,*1D
$IIROT,-2,A*17
$IIGLL,4202.1271,N,07141.7647,W,,V,N*5A
$IIVTG,208.3,T,222.7,M,0.00,N,0.00,K,N*37
$IIGSA,A,1,,,,,,,,,,,,,1.74,0.9,1.5,*34
$IIXDR,C,7.7,C,ENV_OUTSIDE_T,P,99600,P,ENV_ATMOS_P*43
$IIHDG,102.9,000.0,E,014.4,W*50
$IIVHW,088.5,T,102.9,M,,N,,K*5A
$IIGGA,134211.6,4202.1271,N,07141.7647,W,1,10,0.9,226.9,M,-32,M,,*6E
$IIGLL,4202.1271,N,07141.7647,W,134211.6,A,A*5E
$IIROT,-4,A*11
$IIHDG,102.9,000.0,E,014.4,W*50
$IIVHW,088.5,T,102.9,M,,N,,K*5A
$GPGSV,3,1,10,03,37,288,39,04,16,309,26,14,60,122,42,16,31,204,32*7E
$GPGSV,3,2,10,22,38,257,34,25,15,044,28,26,64,196,39,29,24,076,44*72
$GPGSV,3,3,10,31,70,027,42,32,33,130,43*7A
$IIGSA,A,1,03,04,14,16,22,25,26,29,31,32,,,1.74,0.9,1.5,*3A
$IIGRS,,,,,,,,,,,,,,*46
$IIROT,-4,A*11
$IIGLL,4202.1271,N,07141.7647,W,,V,N*5A
$IIVTG,112.7,T,127.1,M,0.00,N,0.00,K,N*3B
$IIHDG,102.9,000.0,E,014.4,W*50
$IIVHW,088.5,T,102.9,M,,N,,K*5A
$IIMWV,69.90,R,1.18,M,A*00
$IIROT,-5,A*10
$IIHDG,102.9,000.0,E,014.4,W*50
$IIVHW,088.5,T,102.9,M,,N,,K*5A
$IIROT,-5,A*10
$IIGLL,4202.1271,N,07141.7647,W,,V,N*5A
$IIVTG,102.2,T,116.6,M,0.00,N,0.00,K,N*3A
$IIHDG,102.9,000.0,E,014.4,W*50
$IIVHW,088.5,T,102.9,M,,N,,K*5A
$IIMWD,167.40,T,,M,2.29,N,1.18,M*5F
$IIROT,-4,A*11
$IIXDR,C,7.7,C,ENV_OUTSIDE_T,P,99600,P,ENV_ATMOS_P*43
$IIHDG,102.9,000.0,E,014.4,W*50
$IIVHW,088.5,T,102.9,M,,N,,K*5A
$IIROT,-5,A*10
$IIGLL,4202.1271,N,07141.7647,W,,V,N*5A
$IIVTG,205.7,T,220.1,M,0.00,N,0.00,K,N*3A
$IIHDG,102.9,000.0,E,014.4,W*50
$IIVHW,088.5,T,102.9,M,,N,,K*5A
$IIROT,-4,A*11
$IIHDG,102.9,000.0,E,014.4,W*50
$IIVHW,088.5,T,102.9,M,,N,,K*5A
$IIMWV,96.19,R,1.13,M,A*0A
$IIROT,0,A*38
$IIGLL,4202.1271,N,07141.7647,W,,V,N*5A
$IIVTG,177.3,T,191.7,M,0.00,N,0.00,K,N*37
$IIHDG,102.9,000.0,E,014.4,W*50
$IIVHW,088.5,T,102.9,M,,N,,K*5A
$IIROT,-5,A*10
$IIHDG,102.9,000.0,E,014.4,W*50
$IIVHW,088.5,T,102.9,M,,N,,K*5A
$IIMWD,187.90,T,,M,1.50,N,0.77,M*59
$IIZDA,134212.6,29,03,2020,,*48
$IIZDA,134212.6,29,03,2020,,*48
$PMAROUT,ATT,-2.0,-22.2,,,,,,*1D
$IIROT,-7,A*12
$IIGLL,4202.1271,N,07141.7647,W,,V,N*5A
$IIVTG,232.9,T,247.3,M,0.00,N,0.00,K,N*33
$IIGSA,A,1,,,,,,,,,,,,,1.74,0.9,1.5,*34
$IIXDR,C,7.7,C,ENV_OUTSIDE_T,P,99600,P,ENV_ATMOS_P*43
$IIXDR,C,7.7,C,ENV_OUTSIDE_T*3C
$IIXDR,P,99670,P,ENV_ATMOS_P*36
$IIHDG,102.9,000.0,E,014.4,W*50
$IIVHW,088.5,T,102.9,M,,N,,K*5A
$IIDTM,W84,,0,N,0,E,0,W84*66
$IIGGA,134212.6,4202.1271,N,07141.7647,W,1,10,0.9,226.9,M,-32,M,,*6D
$IIGLL,4202.1271,N,07141.7647,W,134212.6,A,A*5D
$IIROT,-3,A*16
$IIHDG,102.9,000.0,E,014.4,W*50
$IIVHW,088.5,T,102.9,M,,N,,K*5A
$GPGSV,3,1,10,03,37,288,39,04,16,309,25,14,60,122,42,16,31,204,32*7D
$GPGSV,3,2,10,22,38,257,34,25,15,044,28,26,64,196,39,29,24,076,44*72
$GPGSV,3,3,10,31,70,027,42,32,33,130,43*7A
$IIGSA,A,1,03,04,14,16,22,25,26,29,31,32,,,1.74,0.9,1.5,*3A
$IIGRS,,,,,,,,,,,,,,*46
$IIROT,-3,A*16
$IIGLL,4202.1271,N,07141.7647,W,,V,N*5A
$IIVTG,114.8,T,129.2,M,0.00,N,0.00,K,N*3F
$IIHDG,102.9,000.0,E,014.4,W*50
$IIVHW,088.5,T,102.9,M,,N,,K*5A
$IIMWV,74.40,R,0.61,M,A*0E
$IIROT,-2,A*17
$IIHDG,102.9,000.0,E,014.4,W*50
$IIVHW,088.5,T,102.9,M,,N,,K*5A
$IIROT,-2,A*17
$IIGLL,4202.1271,N,07141.7647,W,,V,N*5A
$IIVTG,105.4,T,119.8,M,0.00,N,0.00,K,N*3A
$IIHDG,102.9,000.0,E,014.4,W*50
$IIVHW,088.5,T,102.9,M,,N,,K*5A
$IIMWD,138.00,T,,M,1.40,N,0.72,M*50
$IIROT,-3,A*16
$IIXDR,C,7.7,C,ENV_OUTSIDE_T,P,99600,P,ENV_ATMOS_P*43
$IIHDG,102.9,000.0,E,014.4,W*50
$IIVHW,088.5,T,102.9,M,,N,,K*5A
$IIROT,-5,A*10
$IIGLL,4202.1271,N,07141.7647,W,,V,N*5A
$IIVTG,171.2,T,185.6,M,0.00,N,0.00,K,N*34
$IIHDG,102.9,000.0,E,014.4,W*50
$IIVHW,088.5,T,102.9,M,,N,,K*5A
$IIROT,-4,A*11
$IIHDG,102.9,000.0,E,014.4,W*50
$IIVHW,088.5,T,102.9,M,,N,,K*5A
$IIMWV,43.10,R,0.82,M,A*02
$IIROT,-4,A*11
$IIGLL,4202.1271,N,07141.7647,W,,V,N*5A
$IIVTG,203.1,T,217.5,M,0.00,N,0.00,K,N*3A
$IIHDG,102.9,000.0,E,014.4,W*50
$IIVHW,088.5,T,102.9,M,,N,,K*5A
$IIROT,-5,A*10
$IIHDG,102.9,000.0,E,014.4,W*50
$IIVHW,088.5,T,102.9,M,,N,,K*5A
$IIMWD,117.59,T,,M,1.98,N,1.02,M*52
$IIZDA,134213.6,29,03,2020,,*49
$IIZDA,134213.6,29,03,2020,,*49
$PMAROUT,ATT,-2.0,-22.2,,,,,,*1D
$IIROT,-6,A*13
$IIGLL,4202.1271,N,07141.7646,W,,V,N*5B
$IIVTG,256.0,T,270.4,M,0.00,N,0.00,K,N*3B
$IIGSA,A,1,,,,,,,,,,,,,1.74,0.9,1.5,*34
$IIXDR,C,7.7,C,ENV_OUTSIDE_T,P,99600,P,ENV_ATMOS_P*43
$IIHDG,102.9,000.0,E,014.4,W*50
$IIVHW,088.5,T,102.9,M,,N,,K*5A
$IIGGA,134213.6,4202.1271,N,07141.7646,W,1,10,0.9,227,M,-32,M,,*7B
$IIGLL,4202.1271,N,07141.7646,W,134213.6,A,A*5D
$IIROT,-2,A*17
$IIHDG,102.9,000.0,E,014.4,W*50
$IIVHW,088.5,T,102.9,M,,N,,K*5A
$GPGSV,3,1,10,03,37,288,39,04,16,309,25,14,60,122,42,16,31,204,34*7B
$GPGSV,3,2,10,22,38,257,33,25,15,044,26,26,64,196,39,29,24,076,44*7B
$GPGSV,3,3,10,31,70,027,42,32,33,130,43*7A
$IIGSA,A,1,03,04,14,16,22,25,26,29,31,32,,,1.74,0.9,1.5,*3A
$IIGRS,,,,,,,,,,,,,,*46
$IIROT,0,A*38
$IIGLL,4202.1271,N,07141.7646,W,,V,N*5B
$IIVTG,100.6,T,115.0,M,0.00,N,0.00,K,N*39
$IIHDG,102.9,000.0,E,014.4,W*50
$IIVHW,088.5,T,102.9,M,,N,,K*5A
$IIMWV,30.70,R,1.18,M,A*02
$IIROT,-4,A*11
$IIHDG,102.9,000.0,E,014.4,W*50
$IIVHW,088.5,T,102.9,M,,N,,K*5A
$IIROT,0,A*38
$IIGLL,4202.1271,N,07141.7646,W,,V,N*5B
$IIVTG,083.2,T,097.6,M,0.00,N,0.00,K,N*3A
$IIHDG,102.9,000.0,E,014.4,W*50
$IIVHW,088.5,T,102.9,M,,N,,K*5A
$IIMWD,119.59,T,,M,2.39,N,1.24,M*50
$IIROT,-5,A*10
$IIXDR,C,7.7,C,ENV_OUTSIDE_T,P,99600,P,ENV_ATMOS_P*43
$IIHDG,102.9,000.0,E,014.4,W*50
$IIVHW,088.5,T,102.9,M,,N,,K*5A
$IIROT,-8,A*1D
$IIGLL,4202.1271,N,07141.7646,W,,V,N*5B
$IIVTG,165.8,T,180.2,M,0.00,N,0.00,K,N*3A
$IIHDG,102.9,000.0,E,014.4,W*50
$IIVHW,088.5,T,102.9,M,,N,,K*5A
$IIROT,-6,A*13
$IIHDG,102.9,000.0,E,014.4,W*50
$IIVHW,088.5,T,102.9,M,,N,,K*5A
$IIMWV,25.20,R,1.13,M,A*08
$IIROT,-8,A*1D
$IIGLL,4202.1271,N,07141.7646,W,,V,N*5B
$IIVTG,265.3,T,279.7,M,0.00,N,0.00,K,N*32
$IIHDG,102.9,000.0,E,014.4,W*50
$IIVHW,088.5,T,102.9,M,,N,,K*5A
$IIROT,-8,A*1D
$IIHDG,102.9,000.0,E,014.4,W*50
$IIVHW,088.5,T,102.9,M,,N,,K*5A
$IIMWD,109.60,T,,M,2.10,N,1.08,M*5E
$IIZDA,134214.6,29,03,2020,,*4E
$IIZDA,134214.6,29,03,2020,,*4E
$PMAROUT,ATT,-2.0,-22.2,,,,,,*1D
$IIROT,-3,A*16
$IIGLL,4202.127,N,07141.7646,W,,V,N*6A
$IIVTG,250.2,T,264.6,M,0.00,N,0.00,K,N*38
$IIGSA,A,1,,,,,,,,,,,,,1.74,0.9,1.5,*34
$IIXDR,C,7.7,C,ENV_OUTSIDE_T,P,99600,P,ENV_ATMOS_P*43
$IIXDR,C,7.7,C,ENV_OUTSIDE_T*3C
$IIXDR,P,99670,P,ENV_ATMOS_P*36
$IIHDG,102.9,000.0,E,014.4,W*50
$IIVHW,088.5,T,102.9,M,,N,,K*5A
$IIGGA,134214.6,4202.127,N,07141.7646,W,1,10,0.9,227,M,-32,M,,*4D
$IIGLL,4202.127,N,07141.7646,W,134214.6,A,A*6B
$IIROT,1,A*39
$IIHDG,102.9,000.0,E,014.4,W*50
$IIVHW,088.5,T,102.9,M,,N,,K*5A
$GPGSV,3,1,10,03,37,288,40,04,16,309,25,14,60,122,42,16,31,204,33*72
$GPGSV,3,2,10,22,38,257,33,25,15,044,26,26,64,196,39,29,24,076,44*7B
$GPGSV,3,3,10,31,70,027,42,32,33,130,43*7A
$IIGSA,A,1,03,04,14,16,22,25,26,29,31,32,,,1.74,0.9,1.5,*3A
$IIGRS,,,,,,,,,,,,,,*46
$IIROT,0,A*38
$IIGLL,4202.127,N,07141.7646,W,,V,N*6A
$IIVTG,083.9,T,098.3,M,0.00,N,0.00,K,N*3B
$IIHDG,102.9,000.0,E,014.4,W*50
$IIVHW,088.5,T,102.9,M,,N,,K*5A
$IIMWV,37.00,R,1.18,M,A*02
$IIROT,0,A*38
$IIHDG,102.9,000.0,E,014.4,W*50
$IIVHW,088.5,T,102.9,M,,N,,K*5A
$IIROT,0,A*38
$IIGLL,4202.127,N,07141.7645,W,,V,N*69
$IIVTG,089.2,T,103.6,M,0.00,N,0.00,K,N*3C
$IIHDG,102.9,000.0,E,014.4,W*50
$IIVHW,088.5,T,102.9,M,,N,,K*5A
$IIMWD,145.19,T,,M,1.69,N,0.87,M*53
$IIROT,1,A*39
$IIXDR,C,7.7,C,ENV_OUTSIDE_T,P,99600,P,ENV_ATMOS_P*43
$IIHDG,102.9,000.0,E,014.4,W*50
$IIVHW,088.5,T,102.9,M,,N,,K*5A
$IIROT,0,A*38
$IIGLL,4202.127,N,07141.7645,W,,V,N*69
$IIVTG,265.4,T,279.8,M,0.00,N,0.00,K,N*3A
$IIHDG,102.9,000.0,E,014.4,W*50
$IIVHW,088.5,T,102.9,M,,N,,K*5A
$IIROT,-1,A*14
$IIHDG,102.9,000.0,E,014.4,W*50
$IIVHW,088.5,T,102.9,M,,N,,K*5A
$IIMWV,89.20,R,0.61,M,A*0A
$IIROT,-2,A*17
$IIGLL,4202.127,N,07141.7645,W,,V,N*69
$IIVTG,256.6,T,271.0,M,0.00,N,0.00,K,N*38
$IIHDG,102.9,000.0,E,014.4,W*50
$IIVHW,088.5,T,102.9,M,,N,,K*5A
$IIROT,-2,A*17
$IIHDG,102.9,000.0,E,014.4,W*50
$IIVHW,088.5,T,102.9,M,,N,,K*5A
$IIMWD,205.79,T,,M,1.40,N,0.72,M*53
$IIZDA,134215.6,29,03,2020,,*4F
$IIZDA,134215.6,29,03,2020,,*4F
$PMAROUT,ATT,-2.0,-22.2,,,,,,*1D
$IIROT,-3,A*16
$IIGLL,4202.127,N,07141.7645,W,,V,N*69
$IIVTG,260.1,T,274.5,M,0.00,N,0.00,K,N*3A
$IIGSA,A,1,,,,,,,,,,,,,1.74,0.9,1.5,*34
$IIXDR,C,7.7,C,ENV_OUTSIDE_T,P,99600,P,ENV_ATMOS_P*43
$IIHDG,102.9,000.0,E,014.4,W*50
$IIVHW,088.5,T,102.9,M,,N,,K*5A
$IIGGA,134215.6,4202.127,N,07141.7645,W,1,10,0.9,227.1,M,-32,M,,*50
$IIGLL,4202.127,N,07141.7645,W,134215.6,A,A*69
$IIROT,-3,A*16
$IIHDG,102.9,000.0,E,014.4,W*50
$IIVHW,088.5,T,102.9,M,,N,,K*5A
$GPGSV,3,1,10,03,37,288,40,04,16,309,26,14,60,122,42,16,31,204,33*71
$GPGSV,3,2,10,22,38,257,33,25,15,044,26,26,64,196,39,29,24,076,44*7B
$GPGSV,3,3,10,31,70,027,42,32,33,130,44*7D
$IIGSA,A,1,03,04,14,16,22,25,26,29,31,32,,,1.74,0.9,1.5,*3A
$IIGRS,,,,,,,,,,,,,,*46
$IIROT,-5,A*10
$IIGLL,4202.127,N,07141.7645,W,,V,N*69
$IIVTG,089.2,T,103.6,M,0.00,N,0.00,K,N*3C
$IIHDG,102.9,000.0,E,014.4,W*50
$IIVHW,088.5,T,102.9,M,,N,,K*5A
$IIMWV,132.90,R,0.66,M,A*37
$IIROT,-3,A*16
$IIHDG,102.9,000.0,E,014.4,W*50
$IIVHW,088.5,T,102.9,M,,N,,K*5A
$IIROT,-2,A*17
$IIGLL,4202.127,N,07141.7645,W,,V,N*69
$IIVTG,093.1,T,107.5,M,0.00,N,0.00,K,N*33
$IIHDG,102.9,000.0,E,014.4,W*50
$IIVHW,088.5,T,102.9,M,,N,,K*5A
$IIMWD,223.29,T,,M,0.58,N,0.3,M*6C
$IIROT,-1,A*14
$IIXDR,C,7.7,C,ENV_OUTSIDE_T,P,99600,P,ENV_ATMOS_P*43
$IIHDG,102.9,000.0,E,014.4,W*50
$IIVHW,088.5,T,102.9,M,,N,,K*5A
$IIROT,-2,A*17
$IIGLL,4202.127,N,07141.7645,W,,V,N*69
$IIVTG,222.7,T,237.1,M,0.00,N,0.00,K,N*39
$IIHDG,102.9,000.0,E,014.4,W*50
$IIVHW,088.5,T,102.9,M,,N,,K*5A
$IIROT,1,A*39
$IIHDG,102.9,000.0,E,014.4,W*50
$IIVHW,088.5,T,102.9,M,,N,,K*5A
$IIMWV,46.40,R,0.36,M,A*0D
$IIROT,2,A*3A
$IIGLL,4202.127,N,07141.7644,W,,V,N*68
$IIVTG,300.5,T,314.9,M,0.00,N,0.00,K,N*32
$IIHDG,102.9,000.0,E,014.4,W*50
$IIVHW,088.5,T,102.9,M,,N,,K*5A
$IIROT,-1,A*14
$IIHDG,102.9,000.0,E,014.4,W*50
$IIVHW,088.5,T,102.9,M,,N,,K*5A
$IIMWD,127.70,T,,M,1.19,N,0.61,M*57
$IIZDA,134216.6,29,03,2020,,*4C
$IIZDA,134216.6,29,03,2020,,*4C
$PMAROUT,ATT,-1.9,-22.2,,,,,,*17
$IIROT,0,A*38
$IIGLL,4202.127,N,07141.7644,W,,V,N*68
$IIVTG,260.1,T,274.5,M,0.00,N,0.00,K,N*3A
$IIGSA,A,1,,,,,,,,,,,,,1.74,0.9,1.5,*34
$IIXDR,C,7.7,C,ENV_OUTSIDE_T,P,99600,P,ENV_ATMOS_P*43
$IIXDR,C,7.7,C,ENV_OUTSIDE_T*3C
$IIXDR,P,99660,P,ENV_ATMOS_P*37
$IIHDG,102.9,000.0,E,014.4,W*50
$IIVHW,088.5,T,102.9,M,,N,,K*5A
$IIGGA,134216.6,4202.127,N,07141.7644,W,1,10,0.9,227.1,M,-32,M,,*52
$IIGLL,4202.127,N,07141.7644,W,134216.6,A,A*6B
$IIROT,0,A*38
$IIHDG,102.9,000.0,E,014.4,W*50
$IIVHW,088.5,T,102.9,M,,N,,K*5A
$GPGSV,3,1,10,03,37,288,40,04,16,309,25,14,60,122,42,16,31,204,33*72
$GPGSV,3,2,10,22,38,257,33,25,15,044,27,26,64,196,39,29,24,076,44*7A
$GPGSV,3,3,10,31,70,027,42,32,33,130,43*7A
$IIGSA,A,1,03,04,14,16,22,25,26,29,31,32,,,1.74,0.9,1.5,*3A
$IIGRS,,,,,,,,,,,,,,*46
$IIROT,3,A*3B
$IIGLL,4202.127,N,07141.7644,W,,V,N*68
$IIVTG,092.0,T,106.4,M,0.00,N,0.00,K,N*33
$IIHDG,102.9,000.0,E,014.4,W*50
$IIVHW,088.5,T,102.9,M,,N,,K*5A
$IIMWV,35.00,R,0.92,M,A*03
$IIROT,2,A*3A
$IIHDG,102.9,000.0,E,014.4,W*50
$IIVHW,088.5,T,102.9,M,,N,,K*5A
$IIROT,3,A*3B
$IIGLL,4202.127,N,07141.7644,W,,V,N*68
$IIVTG,082.9,T,097.3,M,0.00,N,0.00,K,N*35
$IIHDG,102.9,000.0,E,014.4,W*50
$IIVHW,088.5,T,102.9,M,,N,,K*5A
$IIMWD,125.00,T,,M,2.10,N,1.08,M*56
$IIROT,1,A*39
$IIXDR,C,7.7,C,ENV_OUTSIDE_T,P,99600,P,ENV_ATMOS_P*43
$IIHDG,102.9,000.0,E,014.4,W*50
$IIVHW,088.5,T,102.9,M,,N,,K*5A
$IIROT,0,A*38
$IIGLL,4202.127,N,07141.7644,W,,V,N*68
$IIVTG,269.5,T,283.9,M,0.00,N,0.00,K,N*33
$IIHDG,102.9,000.0,E,014.4,W*50
$IIVHW,088.5,T,102.9,M,,N,,K*5A
$IIROT,-5,A*10
$IIHDG,102.9,000.0,E,014.4,W*50
$IIVHW,088.5,T,102.9,M,,N,,K*5A
$IIMWV,35.60,R,1.18,M,A*06
$IIROT,-3,A*16
$IIGLL,4202.127,N,07141.7644,W,,V,N*68
$IIVTG,255.5,T,269.9,M,0.00,N,0.00,K,N*38
$IIHDG,102.9,000.0,E,014.4,W*50
$IIVHW,088.5,T,102.9,M,,N,,K*5A
$IIROT,-1,A*14
$IIHDG,102.9,000.0,E,014.4,W*50
$IIVHW,088.5,T,102.9,M,,N,,K*5A
$IIMWD,127.49,T,,M,2.49,N,1.28,M*57
$IIZDA,134217.6,29,03,2020,,*4D
$IIZDA,134217.6,29,03,2020,,*4D
$PMAROUT,ATT,-2.0,-22.2,,,,,,*1D
$IIROT,-2,A*17
$IIGLL,4202.127,N,07141.7644,W,,V,N*68
$IIVTG,259.1,T,273.5,M,0.00,N,0.00,K,N*37
$IIGSA,A,1,,,,,,,,,,,,,1.74,0.9,1.5,*34
$IIXDR,C,7.7,C,ENV_OUTSIDE_T,P,99600,P,ENV_ATMOS_P*43
$IIHDG,102.9,000.0,E,014.4,W*50
$IIVHW,088.5,T,102.9,M,,N,,K*5A
$IIGGA,134217.6,4202.127,N,07141.7644,W,1,10,0.9,227.2,M,-32,M,,*50
$IIGLL,4202.127,N,07141.7644,W,134217.6,A,A*6A
$IIROT,-2,A*17
$IIHDG,102.9,000.0,E,014.4,W*50
$IIVHW,088.5,T,102.9,M,,N,,K*5A
$GPGSV,3,1,10,03,37,288,40,04,16,309,23,14,60,122,42,16,31,204,32*75
$GPGSV,3,2,10,22,38,257,33,25,15,044,27,26,64,196,39,29,24,076,43*7D
$GPGSV,3,3,10,31,70,027,42,32,33,130,44*7D
$IIGSA,A,1,03,04,14,16,22,25,26,29,31,32,,,1.74,0.9,1.5,*3A
$IIGRS,,,,,,,,,,,,,,*46
$IIROT,-2,A*17
$IIGLL,4202.127,N,07141.7644,W,,V,N*68
$IIVTG,052.6,T,067.0,M,0.00,N,0.00,K,N*3B
$IIHDG,102.9,000.0,E,014.4,W*50
$IIVHW,088.5,T,102.9,M,,N,,K*5A
$IIMWV,42.50,R,1.28,M,A*06
$IIROT,-1,A*14
$IIHDG,102.9,000.0,E,014.4,W*50
$IIVHW,088.5,T,102.9,M,,N,,K*5A
$IIROT,0,A*38
$IIGLL,4202.127,N,07141.7644,W,,V,N*68
$IIVTG,081.6,T,096.0,M,0.00,N,0.00,K,N*3B
$IIHDG,102.9,000.0,E,014.4,W*50
$IIVHW,088.5,T,102.9,M,,N,,K*5A
$IIMWD,134.30,T,,M,2.49,N,1.28,M*5B
$IIROT,0,A*38
$IIXDR,C,7.7,C,ENV_OUTSIDE_T,P,99600,P,ENV_ATMOS_P*43
$IIHDG,102.9,000.0,E,014.4,W*50
$IIVHW,088.5,T,102.9,M,,N,,K*5A
$IIROT,1,A*39
$IIGLL,4202.127,N,07141.7644,W,,V,N*68
$IIVTG,228.1,T,242.5,M,0.00,N,0.00,K,N*33
$IIHDG,102.9,000.0,E,014.4,W*50
$IIVHW,088.5,T,102.9,M,,N,,K*5A
$IIROT,1,A*39
$IIHDG,102.9,000.0,E,014.4,W*50
$IIVHW,088.5,T,102.9,M,,N,,K*5A
$IIMWV,45.89,R,1.38,M,A*04
$IIROT,2,A*3A
$IIGLL,4202.127,N,07141.7644,W,,V,N*68
$IIVTG,259.4,T,273.8,M,0.00,N,0.00,K,N*3F
$IIHDG,102.9,000.0,E,014.4,W*50
$IIVHW,088.5,T,102.9,M,,N,,K*5A
$IIROT,1,A*39
$IIHDG,102.9,000.0,E,014.4,W*50
$IIVHW,088.5,T,102.9,M,,N,,K*5A
$IIMWD,127.70,T,,M,3.09,N,1.59,M*5E
$IIZDA,134218.6,29,03,2020,,*42
$IIZDA,134218.6,29,03,2020,,*42
$PMAROUT,ATT,-2.0,-22.2,,,,,,*1D
$IIROT,1,A*39
$IIGLL,4202.127,N,07141.7644,W,,V,N*68
$IIVTG,262.4,T,276.8,M,0.00,N,0.00,K,N*32
$IIGSA,A,1,,,,,,,,,,,,,1.74,0.9,1.5,*34
$IIXDR,C,7.7,C,ENV_OUTSIDE_T,P,99600,P,ENV_ATMOS_P*43
$IIXDR,C,7.7,C,ENV_OUTSIDE_T*3C
$IIXDR,P,99660,P,ENV_ATMOS_P*37
$IIHDG,102.9,000.0,E,014.4,W*50
$IIVHW,088.5,T,102.9,M,,N,,K*5A
$IIGGA,134218.6,4202.127,N,07141.7644,W,1,10,0.9,227.2,M,-32,M,,*5F
$IIGLL,4202.127,N,07141.7644,W,134218.6,A,A*65
$IIROT,0,A*38
$IIHDG,102.9,000.0,E,014.4,W*50
$IIVHW,088.5,T,102.9,M,,N,,K*5A
$GPGSV,3,1,10,03,37,288,40,04,16,309,24,14,60,122,42,16,31,204,33*73
$GPGSV,3,2,10,22,38,257,33,25,15,044,27,26,64,196,39,29,24,076,43*7D
$GPGSV,3,3,10,31,70,027,42,32,33,130,43*7A
$IIGSA,A,1,03,04,14,16,22,25,26,29,31,32,,,1.74,0.9,1.5,*3A
$IIGRS,,,,,,,,,,,,,,*46
$IIROT,1,A*39
$IIGLL,4202.127,N,07141.7643,W,,V,N*6F
$IIVTG,095.2,T,109.6,M,0.00,N,0.00,K,N*3B
$IIHDG,102.9,000.0,E,014.4,W*50
$IIVHW,088.5,T,102.9,M,,N,,K*5A
$IIMWV,41.69,R,1.59,M,A*09
$IIROT,3,A*3B
$IIHDG,102.9,000.0,E,014.4,W*50
$IIVHW,088.5,T,102.9,M,,N,,K*5A
$IIROT,2,A*3A
$IIGLL,4202.127,N,07141.7643,W,,V,N*6F
$IIVTG,061.8,T,076.2,M,0.00,N,0.00,K,N*37
$IIHDG,102.9,000.0,E,014.4,W*50
$IIVHW,088.5,T,102.9,M,,N,,K*5A
$IIMWD,131.09,T,,M,2.90,N,1.49,M*57
$IIROT,0,A*38
$IIXDR,C,7.7,C,ENV_OUTSIDE_T,P,99600,P,ENV_ATMOS_P*43
$IIHDG,102.9,000.0,E,014.4,W*50
$IIVHW,088.5,T,102.9,M,,N,,K*5A
$IIROT,-3,A*16
$IIGLL,4202.127,N,07141.7643,W,,V,N*6F
$IIVTG,280.2,T,294.6,M,0.00,N,0.00,K,N*3A
$IIHDG,102.9,000.0,E,014.4,W*50
$IIVHW,088.5,T,102.9,M,,N,,K*5A
$IIROT,-2,A*17
$IIHDG,102.9,000.0,E,014.4,W*50
$IIVHW,088.5,T,102.9,M,,N,,K*5A
$IIMWV,47.40,R,1.49,M,A*05
$IIROT,-6,A*13
$IIGLL,4202.127,N,07141.7643,W,,V,N*6F
$IIVTG,261.8,T,276.2,M,0.00,N,0.00,K,N*37
$IIHDG,102.9,000.0,E,014.4,W*50
$IIVHW,088.5,T,102.9,M,,N,,K*5A
$IIROT,-6,A*13
$IIHDG,102.9,000.0,E,014.4,W*50
$IIVHW,088.5,T,102.9,M,,N,,K*5A
$IIMWD,134.10,T,,M,2.59,N,1.33,M*52
$IIZDA,134219.6,29,03,2020,,*43
$IIZDA,134219.6,29,03,2020,,*43
$PMAROUT,ATT,-2.0,-22.2,,,,,,*1D
$IIROT,-6,A*13
$IIGLL,4202.1271,N,07141.7643,W,,V,N*5E
$IIVTG,183.6,T,198.0,M,0.00,N,0.00,K,N*37
$IIGSA,A,1,,,,,,,,,,,,,1.74,0.9,1.5,*34
$IIXDR,C,7.7,C,ENV_OUTSIDE_T,P,99600,P,ENV_ATMOS_P*43
$IIHDG,102.9,000.0,E,014.4,W*50
$IIVHW,088.5,T,102.9,M,,N,,K*5A
$IIGGA,134219.6,4202.1271,N,07141.7643,W,1,10,0.9,227.2,M,-32,M,,*68
$IIGLL,4202.1271,N,07141.7643,W,134219.6,A,A*52
$IIROT,-5,A*10
$IIHDG,102.9,000.0,E,014.4,W*50
$IIVHW,088.5,T,102.9,M,,N,,K*5A
$GPGSV,3,1,10,03,37,288,40,04,16,309,25,14,60,122,42,16,31,204,32*73
$GPGSV,3,2,10,22,38,257,33,25,15,044,27,26,64,196,40,29,24,076,43*73
$GPGSV,3,3,10,31,70,027,42,32,33,130,44*7D
$IIGSA,A,1,03,04,14,16,22,25,26,29,31,32,,,1.74,0.9,1.5,*3A
$IIGRS,,,,,,,,,,,,,,*46
$IIROT,-5,A*10
$IIGLL,4202.1271,N,07141.7643,W,,V,N*5E
$IIVTG,116.3,T,130.7,M,0.00,N,0.00,K,N*3B
$IIHDG,102.9,000.0,E,014.4,W*50
$IIVHW,088.5,T,102.9,M,,N,,K*5A
$IIMWV,40.00,R,1.38,M,A*00
$IIROT,-10,A*24
$IIHDG,102.9,000.0,E,014.4,W*50
$IIVHW,088.5,T,102.9,M,,N,,K*5A
$IIROT,-10,A*24
$IIGLL,4202.1271,N,07141.7643,W,,V,N*5E
$IIVTG,105.1,T,119.5,M,0.00,N,0.00,K,N*32
$IIHDG,102.9,000.0,E,014.4,W*50
$IIVHW,088.5,T,102.9,M,,N,,K*5A
$IIMWD,124.39,T,,M,2.80,N,1.45,M*5D
$IIROT,-6,A*13
$IIXDR,C,7.7,C,ENV_OUTSIDE_T,P,99600,P,ENV_ATMOS_P*43
$IIHDG,102.9,000.0,E,014.4,W*50
$IIVHW,088.5,T,102.9,M,,N,,K*5A
$IIROT,-6,A*13
$IIGLL,4202.1271,N,07141.7643,W,,V,N*5E
$IIVTG,248.9,T,263.3,M,0.00,N,0.00,K,N*38
$IIHDG,102.9,000.0,E,014.4,W*50
$IIVHW,088.5,T,102.9,M,,N,,K*5A
$IIROT,-6,A*13
$IIHDG,102.9,000.0,E,014.4,W*50
$IIVHW,088.5,T,102.9,M,,N,,K*5A
$IIMWV,35.20,R,1.45,M,A*0A
$IIROT,-6,A*13
$IIGLL,4202.1271,N,07141.7643,W,,V,N*5E
$IIVTG,277.5,T,291.9,M,0.00,N,0.00,K,N*3F
$IIHDG,102.9,000.0,E,014.4,W*50
$IIVHW,088.5,T,102.9,M,,N,,K*5A
$IIROT,-4,A*11
$IIHDG,102.9,000.0,E,014.4,W*50
$IIVHW,088.5,T,102.9,M,,N,,K*5A
$IIMWD,121.09,T,,M,2.99,N,1.54,M*53
$IIZDA,134220.6,29,03,2020,,*49
$IIZDA,134220.6,29,03,2020,,*49
$PMAROUT,ATT,-1.9,-22.2,,,,,,*17
$IIROT,-5,A*10
$IIGLL,4202.1271,N,07141.7643,W,,V,N*5E
$IIVTG,284.2,T,298.6,M,0.00,N,0.00,K,N*32
$IIGSA,A,1,,,,,,,,,,,,,1.74,0.9,1.5,*34
$IIXDR,C,7.7,C,ENV_OUTSIDE_T,P,99600,P,ENV_ATMOS_P*43
$IIXDR,C,7.7,C,ENV_OUTSIDE_T*3C
$IIXDR,P,99670,P,ENV_ATMOS_P*36
$IIHDG,102.9,000.0,E,014.4,W*50
$IIVHW,088.5,T,102.9,M,,N,,K*5A
$IIGGA,134220.6,4202.1271,N,07141.7643,W,1,10,0.9,227.3,M,-32,M,,*63
$IIGLL,4202.1271,N,07141.7643,W,134220.6,A,A*58
$IIROT,-2,A*17
$IIHDG,102.9,000.0,E,014.4,W*50
$IIVHW,088.5,T,102.9,M,,N,,K*5A
$GPGSV,3,1,10,03,37,288,40,04,16,309,23,14,60,122,42,16,31,204,32*75
$GPGSV,3,2,10,22,38,257,33,25,15,044,27,26,64,196,40,29,24,075,43*70
$GPGSV,3,3,10,31,70,027,42,32,33,130,44*7D
$IIGSA,A,1,03,04,14,16,22,25,26,29,31,32,,,1.74,0.9,1.5,*3A
$IIGRS,,,,,,,,,,,,,,*46
$IIROT,-2,A*17
$IIGLL,4202.1271,N,07141.7643,W,,V,N*5E
$IIVTG,341.9,T,356.3,M,0.00,N,0.00,K,N*37
$IIHDG,102.9,000.0,E,014.4,W*50
$IIVHW,088.5,T,102.9,M,,N,,K*5A
$IIMWV,25.59,R,1.33,M,A*04
$IIROT,-1,A*14
$IIHDG,102.9,000.0,E,014.4,W*50
$IIVHW,088.5,T,102.9,M,,N,,K*5A
$IIROT,-5,A*10
$IIGLL,4202.1271,N,07141.7643,W,,V,N*5E
$IIVTG,030.3,T,044.7,M,0.00,N,0.00,K,N*3C
$IIHDG,102.9,000.0,E,014.4,W*50
$IIVHW,088.5,T,102.9,M,,N,,K*5A
$IIMWD,112.99,T,,M,2.59,N,1.33,M*57
$IIROT,-4,A*11
$IIXDR,C,7.7,C,ENV_OUTSIDE_T,P,99600,P,ENV_ATMOS_P*43
$IIHDG,102.9,000.0,E,014.4,W*50
$IIVHW,088.5,T,102.9,M,,N,,K*5A
$IIROT,-5,A*10
$IIGLL,4202.1271,N,07141.7643,W,,V,N*5E
$IIVTG,304.3,T,318.7,M,0.00,N,0.00,K,N*32
$IIHDG,102.9,000.0,E,014.4,W*50
$IIVHW,088.5,T,102.9,M,,N,,K*5A
$IIROT,-7,A*12
$IIHDG,102.9,000.0,E,014.4,W*50
$IIVHW,088.5,T,102.9,M,,N,,K*5A
$IIMWV,25.30,R,1.33,M,A*0B
$IIROT,-5,A*10
$IIGLL,4202.1271,N,07141.7643,W,,V,N*5E
$IIVTG,302.0,T,316.4,M,0.00,N,0.00,K,N*3A
$IIHDG,102.9,000.0,E,014.4,W*50
$IIVHW,088.5,T,102.9,M,,N,,K*5A
$IIROT,-2,A*17
$IIHDG,102.9,000.0,E,014.4,W*50
$IIVHW,088.5,T,102.9,M,,N,,K*5A
$IIMWD,115.50,T,,M,2.49,N,1.28,M*5E
$IIZDA,134221.6,29,03,2020,,*48
$IIZDA,134221.6,29,03,2020,,*48
$PMAROUT,ATT,-1.9,-22.2,,,,,,*17
$IIROT,0,A*38
$IIGLL,4202.1271,N,07141.7643,W,,V,N*5E
$IIVTG,290.2,T,304.6,M,0.00,N,0.00,K,N*33
$IIGSA,A,1,,,,,,,,,,,,,1.74,0.9,1.5,*34
$IIXDR,C,7.7,C,ENV_OUTSIDE_T,P,99600,P,ENV_ATMOS_P*43
$IIHDG,102.9,000.0,E,014.4,W*50
$IIVHW,088.5,T,102.9,M,,N,,K*5A
$IIGGA,134221.6,4202.1271,N,07141.7643,W,1,10,0.9,227.3,M,-32,M,,*62
$IIGLL,4202.1271,N,07141.7643,W,134221.6,A,A*59
$IIROT,4,A*3C
$IIHDG,102.9,000.0,E,014.4,W*50
$IIVHW,088.5,T,102.9,M,,N,,K*5A
$GPGSV,3,1,10,03,37,288,40,04,16,309,21,14,59,122,42,16,31,204,32*7D
$GPGSV,3,2,10,22,38,257,32,25,15,044,26,26,64,196,40,29,24,075,43*70
$GPGSV,3,3,10,31,70,027,42,32,33,130,44*7D
$IIGSA,A,1,03,04,14,16,22,25,26,29,31,32,,,1.74,0.9,1.5,*3A
$IIGRS,,,,,,,,,,,,,,*46
$IIROT,2,A*3A
$IIGLL,4202.1271,N,07141.7643,W,,V,N*5E
$IIVTG,025.1,T,039.5,M,0.00,N,0.00,K,N*32
$IIHDG,102.9,000.0,E,014.4,W*50
$IIVHW,088.5,T,102.9,M,,N,,K*5A
$IIMWV,33.00,R,1.54,M,A*0E
$IIROT,2,A*3A
$IIHDG,102.9,000.0,E,014.4,W*50
$IIVHW,088.5,T,102.9,M,,N,,K*5A
$IIROT,5,A*3D
$IIGLL,4202.1271,N,07141.7643,W,,V,N*5E
$IIVTG,052.8,T,067.2,M,0.00,N,0.00,K,N*37
$IIHDG,102.9,000.0,E,014.4,W*50
$IIVHW,088.5,T,102.9,M,,N,,K*5A
$IIMWD,121.30,T,,M,3.09,N,1.59,M*5C
$IIROT,-3,A*16
$IIXDR,C,7.7,C,ENV_OUTSIDE_T,P,99600,P,ENV_ATMOS_P*43
$IIHDG,102.9,000.0,E,014.4,W*50
$IIVHW,088.5,T,102.9,M,,N,,K*5A
$IIROT,0,A*38
$IIGLL,4202.1271,N,07141.7643,W,,V,N*5E
$IIVTG,286.1,T,300.5,M,0.00,N,0.00,K,N*30
$IIHDG,102.9,000.0,E,014.4,W*50
$IIVHW,088.5,T,102.9,M,,N,,K*5A
$IIROT,-2,A*17
$IIHDG,102.9,000.0,E,014.4,W*50
$IIVHW,088.5,T,102.9,M,,N,,K*5A
$IIMWV,18.60,R,1.28,M,A*0A
$IIROT,-2,A*17
$IIGLL,4202.1271,N,07141.7643,W,,V,N*5E
$IIVTG,283.9,T,298.3,M,0.00,N,0.00,K,N*3B
$IIHDG,102.9,000.0,E,014.4,W*50
$IIVHW,088.5,T,102.9,M,,N,,K*5A
$IIROT,0,A*38
$IIHDG,102.9,000.0,E,014.4,W*50
$IIVHW,088.5,T,102.9,M,,N,,K*5A
$IIMWD,94.30,T,,M,2.59,N,1.33,M*6B
$IIZDA,134222.6,29,03,2020,,*4B
$IIZDA,134222.6,29,03,2020,,*4B
$PMAROUT,ATT,-2.0,-22.2,,,,,,*1D
$IIROT,0,A*38
$IIGLL,4202.1271,N,07141.7643,W,,V,N*5E
$IIVTG,302.0,T,316.4,M,0.00,N,0.00,K,N*3A
$IIGSA,A,1,,,,,,,,,,,,,1.74,0.9,1.5,*34
$IIXDR,C,7.7,C,ENV_OUTSIDE_T,P,99600,P,ENV_ATMOS_P*43
$IIXDR,C,7.7,C,ENV_OUTSIDE_T*3C
$IIXDR,P,99660,P,ENV_ATMOS_P*37
$IIHDG,102.9,000.0,E,014.4,W*50
$IIVHW,088.5,T,102.9,M,,N,,K*5A
$IIDTM,W84,,0,N,0,E,0,W84*66
$IIGGA,134222.6,4202.1271,N,07141.7643,W,1,10,0.9,227.3,M,-32,M,,*61
$IIGLL,4202.1271,N,07141.7643,W,134222.6,A,A*5A
$IIROT,2,A*3A
$IIHDG,102.9,000.0,E,014.4,W*50
$IIVHW,088.5,T,102.9,M,,N,,K*5A
$GPGSV,3,1,10,03,37,288,39,04,16,309,22,14,59,122,42,16,31,204,31*73
$GPGSV,3,2,10,22,38,257,32,25,15,044,28,26,64,196,40,29,24,075,43*7E
$GPGSV,3,3,10,31,70,027,42,32,33,130,44*7D
$IIGSA,A,1,03,04,14,16,22,25,26,29,31,32,,,1.74,0.9,1.5,*3A
$IIGRS,,,,,,,,,,,,,,*46
$IIROT,3,A*3B
$IIGLL,4202.1271,N,07141.7643,W,,V,N*5E
$IIVTG,033.5,T,047.9,M,0.00,N,0.00,K,N*34
$IIHDG,102.9,000.0,E,014.4,W*50
$IIVHW,088.5,T,102.9,M,,N,,K*5A
$IIMWV,8.50,R,1.33,M,A*32
$IIROT,-1,A*14
$IIHDG,102.9,000.0,E,014.4,W*50
$IIVHW,088.5,T,102.9,M,,N,,K*5A
$IIROT,-2,A*17
$IIGLL,4202.1271,N,07141.7642,W,,V,N*5F
$IIVTG,046.7,T,061.1,M,0.00,N,0.00,K,N*38
$IIHDG,102.9,000.0,E,014.4,W*50
$IIVHW,088.5,T,102.9,M,,N,,K*5A
$IIMWD,101.49,T,,M,2.29,N,1.18,M*56
$IIROT,0,A*38
$IIXDR,C,7.7,C,ENV_OUTSIDE_T,P,99600,P,ENV_ATMOS_P*43
$IIHDG,102.9,000.0,E,014.4,W*50
$IIVHW,088.5,T,102.9,M,,N,,K*5A
$IIROT,1,A*39
$IIGLL,4202.1271,N,07141.7642,W,,V,N*5F
$IIVTG,280.9,T,295.3,M,0.00,N,0.00,K,N*35
$IIHDG,102.9,000.0,E,014.4,W*50
$IIVHW,088.5,T,102.9,M,,N,,K*5A
$IIROT,2,A*3A
$IIHDG,102.9,000.0,E,014.4,W*50
$IIVHW,088.5,T,102.9,M,,N,,K*5A
$IIMWV,14.99,R,1.13,M,A*08
$IIROT,1,A*39
$IIGLL,4202.1271,N,07141.7642,W,,V,N*5F
$IIVTG,279.8,T,294.2,M,0.00,N,0.00,K,N*32
$IIHDG,102.9,000.0,E,014.4,W*50
$IIVHW,088.5,T,102.9,M,,N,,K*5A
$IIROT,1,A*39
$IIHDG,102.9,000.0,E,014.4,W*50
$IIVHW,088.5,T,102.9,M,,N,,K*5A
$IIMWD,97.40,T,,M,2.10,N,1.08,M*6A
$IIZDA,134223.6,29,03,2020,,*4A
$IIZDA,134223.6,29,03,2020,,*4A
$PMAROUT,ATT,-1.9,-22.2,,,,,,*17
$IIROT,2,A*3A
$IIGLL,4202.1271,N,07141.7642,W,,V,N*5F
$IIVTG,274.0,T,288.4,M,0.00,N,0.00,K,N*3C
$IIGSA,A,1,,,,,,,,,,,,,1.74,0.9,1.5,*34
$IIXDR,C,7.7,C,ENV_OUTSIDE_T,P,99600,P,ENV_ATMOS_P*43
$IIHDG,102.9,000.0,E,014.4,W*50
$IIVHW,088.5,T,102.9,M,,N,,K*5A
$IIGGA,134223.6,4202.1271,N,07141.7642,W,1,10,0.9,227.4,M,-32,M,,*66
$IIGLL,4202.1271,N,07141.7642,W,134223.6,A,A*5A
$IIROT,4,A*3C
$IIHDG,102.9,000.0,E,014.4,W*50
$IIVHW,088.5,T,102.9,M,,N,,K*5A
$GPGSV,3,1,10,03,37,288,40,04,16,309,22,14,59,122,42,16,31,204,32*7E
$GPGSV,3,2,10,22,38,257,32,25,15,044,28,26,64,196,39,29,24,075,43*70
$GPGSV,3,3,10,31,70,027,42,32,33,130,44*7D
$IIGSA,A,1,03,04,14,16,22,25,26,29,31,32,,,1.74,0.9,1.5,*3A
$IIGRS,,,,,,,,,,,,,,*46
$IIROT,4,A*3C
$IIGLL,4202.1272,N,07141.7642,W,,V,N*5C
$IIVTG,053.6,T,068.0,M,0.00,N,0.00,K,N*35
$IIHDG,102.9,000.0,E,014.4,W*50
$IIVHW,088.5,T,102.9,M,,N,,K*5A
$IIMWV,8.59,R,1.13,M,A*39
$IIROT,5,A*3D
$IIHDG,102.9,000.0,E,014.4,W*50
$IIVHW,088.5,T,102.9,M,,N,,K*5A
$IIROT,1,A*39
$IIGLL,4202.1272,N,07141.7642,W,,V,N*5C
$IIVTG,071.6,T,086.0,M,0.00,N,0.00,K,N*35
$IIHDG,102.9,000.0,E,014.4,W*50
$IIVHW,088.5,T,102.9,M,,N,,K*5A
$IIMWD,92.40,T,,M,1.89,N,0.97,M*6B
$IIROT,2,A*3A
$IIXDR,C,7.7,C,ENV_OUTSIDE_T,P,99600,P,ENV_ATMOS_P*43
$IIHDG,102.9,000.0,E,014.4,W*50
$IIVHW,088.5,T,102.9,M,,N,,K*5A
$IIROT,2,A*3A
$IIGLL,4202.1272,N,07141.7642,W,,V,N*5C
$IIVTG,301.3,T,315.7,M,0.00,N,0.00,K,N*3A
$IIHDG,102.9,000.0,E,014.4,W*50
$IIVHW,088.5,T,102.9,M,,N,,K*5A
$IIROT,6,A*3E
$IIHDG,102.9,000.0,E,014.4,W*50
$IIVHW,088.5,T,102.9,M,,N,,K*5A
$IIMWV,3.10,R,0.97,M,A*32
$IIROT,4,A*3C
$IIGLL,4202.1272,N,07141.7642,W,,V,N*5C
$IIVTG,275.2,T,289.6,M,0.00,N,0.00,K,N*3C
$IIHDG,102.9,000.0,E,014.4,W*50
$IIVHW,088.5,T,102.9,M,,N,,K*5A
$IIROT,3,A*3B
$IIHDG,102.9,000.0,E,014.4,W*50
$IIVHW,088.5,T,102.9,M,,N,,K*5A
$IIMWD,87.00,T,,M,1.69,N,0.87,M*64
$IIZDA,134224.6,29,03,2020,,*4D
$IIZDA,134224.6,29,03,2020,,*4D
$PMAROUT,ATT,-2.0,-22.2,,,,,,*1D
$IIROT,2,A*3A
$IIGLL,4202.1272,N,07141.7642,W,,V,N*5C
$IIVTG,270.9,T,285.3,M,0.00,N,0.00,K,N*3B
$IIGSA,A,1,,,,,,,,,,,,,1.74,0.9,1.5,*34
$IIXDR,C,7.7,C,ENV_OUTSIDE_T,P,99600,P,ENV_ATMOS_P*43
$IIXDR,C,7.7,C,ENV_OUTSIDE_T*3C
$IIXDR,P,99660,P,ENV_ATMOS_P*37
$IIHDG,102.9,000.0,E,014.4,W*50
$IIVHW,088.5,T,102.9,M,,N,,K*5A
$IIGGA,134224.6,4202.1272,N,07141.7642,W,1,10,0.9,227.4,M,-32,M,,*62
$IIGLL,4202.1272,N,07141.7642,W,134224.6,A,A*5E
$IIROT,1,A*39
$IIHDG,102.9,000.0,E,014.4,W*50
$IIVHW,088.5,T,102.9,M,,N,,K*5A
$GPGSV,3,1,10,03,37,288,40,04,16,309,22,14,59,122,42,16,31,204,32*7E
$GPGSV,3,2,10,22,38,257,31,25,15,044,28,26,64,196,39,29,24,075,43*73
$GPGSV,3,3,10,31,70,027,42,32,33,130,44*7D
$IIGSA,A,1,03,04,14,16,22,25,26,29,31,32,,,1.74,0.9,1.5,*3A
$IIGRS,,,,,,,,,,,,,,*46
$IIROT,1,A*39
$IIGLL,4202.1272,N,07141.7642,W,,V,N*5C
$IIVTG,111.0,T,125.4,M,0.00,N,0.00,K,N*38
$IIHDG,102.9,000.0,E,014.4,W*50
$IIVHW,088.5,T,102.9,M,,N,,K*5A
$IIMWV,358.59,R,0.82,M,A*36
$IIROT,2,A*3A
$IIHDG,102.9,000.0,E,014.4,W*50
$IIVHW,088.5,T,102.9,M,,N,,K*5A
$IIROT,2,A*3A
$IIGLL,4202.1272,N,07141.7642,W,,V,N*5C
$IIVTG,100.3,T,114.7,M,0.00,N,0.00,K,N*3A
$IIHDG,102.9,000.0,E,014.4,W*50
$IIVHW,088.5,T,102.9,M,,N,,K*5A
$IIMWD,77.80,T,,M,1.28,N,0.66,M*69
$IIROT,3,A*3B
$IIXDR,C,7.7,C,ENV_OUTSIDE_T,P,99600,P,ENV_ATMOS_P*43
